% obs start : 2023/11/29 12:47:02.0 GPST (week2290 305222.0s)
% obs end   : 2023/11/29 14:38:33.0 GPST (week2290 311913.0s)
% pos mode  : Single
% elev mask : 5.0 deg
% ionos opt : Broadcast
% tropo opt : Saastamoinen
% ephemeris : Broadcast
% navi sys  : GPS Galileo QZSS BDS NavIC
%
% (lat/lon/height=WGS84/ellipsoidal,Q=1:fix,2:float,3:sbas,4:dgps,5:single,6:ppp,ns=# of satellites)
%  GPST                  latitude(deg) longitude(deg)  height(m)   Q  ns   sdn(m)   sde(m)   sdu(m)  sdne(m)  sdeu(m)  sdun(m) age(s)  ratio
2023/11/29 13:40:10.000   12.575897428   77.018822873   561.7284   5  32   2.3958   2.8936   6.3240  -0.2632   1.7698  -0.4766   0.00    0.0
2023/11/29 13:40:11.000   12.575933598   77.018906556   561.4496   5  32   2.3956   2.8936   6.3239  -0.2636   1.7699  -0.4766   0.00    0.0
2023/11/29 13:40:12.000   12.575975313   77.019004977   561.7996   5  32   2.3955   2.8936   6.3238  -0.2640   1.7700  -0.4766   0.00    0.0
2023/11/29 13:40:13.000   12.576015136   77.019100122   559.9873   5  32   2.3954   2.8936   6.3237  -0.2644   1.7701  -0.4767   0.00    0.0
2023/11/29 13:40:14.000   12.576061209   77.019205061   560.3594   5  32   2.3952   2.8937   6.3237  -0.2648   1.7702  -0.4767   0.00    0.0
2023/11/29 13:40:15.000   12.576101789   77.019317613   560.6864   5  32   2.3951   2.8937   6.3236  -0.2652   1.7703  -0.4768   0.00    0.0
2023/11/29 13:40:16.000   12.576158527   77.019450370   559.7483   5  32   2.3950   2.8937   6.3235  -0.2656   1.7704  -0.4768   0.00    0.0
2023/11/29 13:40:17.000   12.576203092   77.019583212   560.7548   5  32   2.3948   2.8937   6.3234  -0.2660   1.7705  -0.4768   0.00    0.0
2023/11/29 13:40:18.000   12.576242681   77.019722360   559.9391   5  32   2.3947   2.8937   6.3233  -0.2664   1.7706  -0.4769   0.00    0.0
2023/11/29 13:40:19.000   12.576277894   77.019860318   559.3993   5  32   2.3946   2.8938   6.3232  -0.2668   1.7707  -0.4769   0.00    0.0
2023/11/29 13:40:20.000   12.576319810   77.019995822   558.5621   5  32   2.3944   2.8938   6.3231  -0.2673   1.7707  -0.4769   0.00    0.0
2023/11/29 13:40:21.000   12.576370623   77.020142294   559.1100   5  32   2.3943   2.8938   6.3230  -0.2677   1.7708  -0.4770   0.00    0.0
2023/11/29 13:40:22.000   12.576424313   77.020292981   557.1738   5  32   2.3941   2.8938   6.3230  -0.2681   1.7709  -0.4770   0.00    0.0
2023/11/29 13:40:23.000   12.576489370   77.020456474   556.4352   5  32   2.3940   2.8938   6.3229  -0.2685   1.7710  -0.4770   0.00    0.0
2023/11/29 13:40:24.000   12.576568482   77.020637868   555.8183   5  32   2.3939   2.8939   6.3228  -0.2689   1.7711  -0.4771   0.00    0.0
2023/11/29 13:40:25.000   12.576641362   77.020827197   555.9782   5  32   2.3937   2.8939   6.3227  -0.2693   1.7712  -0.4771   0.00    0.0
2023/11/29 13:40:26.000   12.576720074   77.021015828   554.8458   5  32   2.3936   2.8939   6.3226  -0.2697   1.7713  -0.4772   0.00    0.0
2023/11/29 13:40:27.000   12.576799866   77.021208563   555.9670   5  32   2.3935   2.8939   6.3225  -0.2701   1.7713  -0.4772   0.00    0.0
2023/11/29 13:40:28.000   12.576884334   77.021401296   555.0977   5  32   2.3933   2.8939   6.3224  -0.2705   1.7714  -0.4773   0.00    0.0
2023/11/29 13:40:29.000   12.576966002   77.021601913   555.4991   5  32   2.3932   2.8940   6.3223  -0.2709   1.7715  -0.4773   0.00    0.0
2023/11/29 13:40:30.000   12.577051895   77.021810161   555.4082   5  32   2.3931   2.8940   6.3222  -0.2713   1.7716  -0.4774   0.00    0.0
2023/11/29 13:40:31.000   12.577143188   77.022033464   555.5841   5  32   2.3929   2.8940   6.3221  -0.2717   1.7717  -0.4775   0.00    0.0
2023/11/29 13:40:32.000   12.577232731   77.022251525   555.9587   5  32   2.3928   2.8940   6.3221  -0.2721   1.7718  -0.4775   0.00    0.0
2023/11/29 13:40:33.000   12.577320124   77.022461173   555.6871   5  32   2.3927   2.8940   6.3220  -0.2725   1.7718  -0.4776   0.00    0.0
2023/11/29 13:40:34.000   12.577415291   77.022687538   555.8458   5  32   2.3925   2.8940   6.3219  -0.2729   1.7719  -0.4776   0.00    0.0
2023/11/29 13:40:35.000   12.577505706   77.022908089   555.2849   5  32   2.3924   2.8940   6.3218  -0.2733   1.7720  -0.4777   0.00    0.0
2023/11/29 13:40:36.000   12.577598968   77.023129450   555.4944   5  32   2.3922   2.8941   6.3217  -0.2737   1.7721  -0.4777   0.00    0.0
2023/11/29 13:40:37.000   12.577692202   77.023356961   555.7079   5  32   2.3921   2.8941   6.3216  -0.2741   1.7722  -0.4778   0.00    0.0
2023/11/29 13:40:38.000   12.577780758   77.023578048   554.3354   5  32   2.3920   2.8941   6.3215  -0.2745   1.7722  -0.4778   0.00    0.0
2023/11/29 13:40:39.000   12.577872002   77.023812943   555.2740   5  32   2.3918   2.8941   6.3214  -0.2748   1.7723  -0.4779   0.00    0.0
2023/11/29 13:40:40.000   12.577967149   77.024045674   555.2909   5  32   2.3917   2.8941   6.3213  -0.2752   1.7724  -0.4780   0.00    0.0
2023/11/29 13:40:41.000   12.578053834   77.024288747   555.9531   5  32   2.3916   2.8941   6.3212  -0.2756   1.7725  -0.4780   0.00    0.0
2023/11/29 13:40:42.000   12.578140087   77.024531030   555.7377   5  32   2.3914   2.8942   6.3211  -0.2760   1.7725  -0.4781   0.00    0.0
2023/11/29 13:40:43.000   12.578231986   77.024783039   555.2496   5  32   2.3913   2.8942   6.3210  -0.2764   1.7726  -0.4781   0.00    0.0
2023/11/29 13:40:44.000   12.578318800   77.025046284   556.2572   5  32   2.3912   2.8942   6.3210  -0.2768   1.7727  -0.4782   0.00    0.0
2023/11/29 13:40:45.000   12.578413883   77.025289550   554.6811   5  32   2.3910   2.8942   6.3209  -0.2772   1.7728  -0.4782   0.00    0.0
2023/11/29 13:40:46.000   12.578501203   77.025552515   554.6777   5  31   2.4451   2.9606   6.6525   0.4921   2.1063   0.9128   0.00    0.0
2023/11/29 13:40:47.000   12.578593435   77.025812801   554.5158   5  32   2.3907   2.8942   6.3207  -0.2780   1.7729  -0.4783   0.00    0.0
2023/11/29 13:40:48.000   12.578675177   77.026085617   556.1239   5  32   2.3906   2.8942   6.3206  -0.2784   1.7730  -0.4784   0.00    0.0
2023/11/29 13:40:49.000   12.578767154   77.026345383   555.8119   5  32   2.3905   2.8943   6.3205  -0.2788   1.7731  -0.4784   0.00    0.0
2023/11/29 13:40:50.000   12.578855317   77.026616311   557.8629   5  32   2.3903   2.8943   6.3204  -0.2792   1.7732  -0.4785   0.00    0.0
2023/11/29 13:40:51.000   12.578946121   77.026868585   556.4472   5  32   2.3902   2.8943   6.3203  -0.2795   1.7732  -0.4785   0.00    0.0
2023/11/29 13:40:52.000   12.579040431   77.027136926   558.0532   5  32   2.3901   2.8943   6.3202  -0.2799   1.7733  -0.4786   0.00    0.0
2023/11/29 13:40:53.000   12.579133855   77.027392506   558.0151   5  32   2.3899   2.8943   6.3201  -0.2803   1.7734  -0.4786   0.00    0.0
2023/11/29 13:40:54.000   12.579236556   77.027659715   558.7865   5  32   2.3898   2.8943   6.3200  -0.2807   1.7735  -0.4787   0.00    0.0
2023/11/29 13:40:55.000   12.579339209   77.027920793   559.7911   5  32   2.3897   2.8943   6.3199  -0.2811   1.7735  -0.4787   0.00    0.0
2023/11/29 13:40:56.000   12.579446353   77.028179722   561.2990   5  32   2.3895   2.8944   6.3198  -0.2815   1.7736  -0.4788   0.00    0.0
2023/11/29 13:40:57.000   12.579556790   77.028432114   560.5268   5  32   2.3894   2.8944   6.3197  -0.2819   1.7737  -0.4789   0.00    0.0
2023/11/29 13:40:58.000   12.579665796   77.028675885   562.2126   5  32   2.3892   2.8944   6.3196  -0.2823   1.7738  -0.4789   0.00    0.0
2023/11/29 13:40:59.000   12.579784069   77.028925178   563.0272   5  32   2.3891   2.8944   6.3195  -0.2826   1.7738  -0.4790   0.00    0.0
2023/11/29 13:41:00.000   12.579900604   77.029168237   564.0015   5  32   2.3890   2.8944   6.3195  -0.2830   1.7739  -0.4791   0.00    0.0
2023/11/29 13:41:01.000   12.580018949   77.029404369   563.7549   5  32   2.3888   2.8944   6.3194  -0.2834   1.7740  -0.4791   0.00    0.0
2023/11/29 13:41:02.000   12.580119047   77.029624420   565.5582   5  32   2.3887   2.8944   6.3193  -0.2838   1.7741  -0.4792   0.00    0.0
2023/11/29 13:41:03.000   12.580209025   77.029825926   564.4794   5  32   2.3886   2.8945   6.3192  -0.2842   1.7742  -0.4792   0.00    0.0
2023/11/29 13:41:04.000   12.580297241   77.030037820   564.4083   5  32   2.3884   2.8945   6.3191  -0.2846   1.7743  -0.4793   0.00    0.0
2023/11/29 13:41:05.000   12.580378733   77.030247417   565.2974   5  32   2.3883   2.8945   6.3190  -0.2849   1.7743  -0.4793   0.00    0.0
2023/11/29 13:41:06.000   12.580455647   77.030445451   565.0690   5  32   2.3882   2.8945   6.3189  -0.2853   1.7744  -0.4794   0.00    0.0
2023/11/29 13:41:07.000   12.580523853   77.030639836   565.8717   5  32   2.3880   2.8945   6.3188  -0.2857   1.7745  -0.4794   0.00    0.0
2023/11/29 13:41:08.000   12.580586260   77.030829596   565.7720   5  32   2.3879   2.8945   6.3187  -0.2861   1.7746  -0.4794   0.00    0.0
2023/11/29 13:41:09.000   12.580643444   77.031007022   565.1484   5  32   2.3878   2.8946   6.3186  -0.2865   1.7747  -0.4795   0.00    0.0
2023/11/29 13:41:10.000   12.580699498   77.031191289   564.9635   5  32   2.3876   2.8946   6.3185  -0.2868   1.7748  -0.4795   0.00    0.0
2023/11/29 13:41:11.000   12.580758810   77.031384005   565.6240   5  32   2.3875   2.8946   6.3184  -0.2872   1.7748  -0.4795   0.00    0.0
2023/11/29 13:41:12.000   12.580811297   77.031570012   565.4148   5  32   2.3874   2.8946   6.3184  -0.2876   1.7749  -0.4796   0.00    0.0
2023/11/29 13:41:13.000   12.580861585   77.031767504   564.7280   5  32   2.3872   2.8946   6.3183  -0.2880   1.7750  -0.4796   0.00    0.0
2023/11/29 13:41:14.000   12.580914230   77.031959807   564.7714   5  32   2.3871   2.8947   6.3182  -0.2883   1.7751  -0.4796   0.00    0.0
2023/11/29 13:41:15.000   12.580964009   77.032154143   563.7857   5  32   2.3870   2.8947   6.3181  -0.2887   1.7752  -0.4797   0.00    0.0
2023/11/29 13:41:16.000   12.581020726   77.032361016   563.9443   5  32   2.3868   2.8947   6.3180  -0.2891   1.7753  -0.4797   0.00    0.0
2023/11/29 13:41:17.000   12.581076592   77.032564558   564.4432   5  32   2.3867   2.8947   6.3179  -0.2895   1.7753  -0.4797   0.00    0.0
2023/11/29 13:41:18.000   12.581128137   77.032770200   563.1345   5  32   2.3865   2.8947   6.3178  -0.2899   1.7754  -0.4798   0.00    0.0
2023/11/29 13:41:19.000   12.581185526   77.032971181   562.8838   5  32   2.3864   2.8947   6.3177  -0.2902   1.7755  -0.4798   0.00    0.0
2023/11/29 13:41:20.000   12.581236886   77.033183074   562.6946   5  32   2.3863   2.8948   6.3176  -0.2906   1.7756  -0.4798   0.00    0.0
2023/11/29 13:41:21.000   12.581293084   77.033385063   561.6748   5  32   2.3861   2.8948   6.3175  -0.2910   1.7757  -0.4799   0.00    0.0
2023/11/29 13:41:22.000   12.581351091   77.033594289   562.2891   5  32   2.3860   2.8948   6.3174  -0.2914   1.7757  -0.4799   0.00    0.0
2023/11/29 13:41:23.000   12.581400422   77.033790827   560.5327   5  32   2.3859   2.8948   6.3173  -0.2917   1.7758  -0.4799   0.00    0.0
2023/11/29 13:41:24.000   12.581451639   77.033983487   560.7871   5  32   2.3857   2.8948   6.3172  -0.2921   1.7759  -0.4800   0.00    0.0
2023/11/29 13:41:25.000   12.581512572   77.034193385   562.5757   5  32   2.3856   2.8948   6.3171  -0.2925   1.7760  -0.4800   0.00    0.0
2023/11/29 13:41:26.000   12.581569758   77.034392846   562.4331   5  32   2.3855   2.8949   6.3171  -0.2928   1.7761  -0.4800   0.00    0.0
2023/11/29 13:41:27.000   12.581653602   77.034561691   557.3889   5  32   2.3853   2.8949   6.3170  -0.2932   1.7762  -0.4801   0.00    0.0
2023/11/29 13:41:28.000   12.581708798   77.034769114   558.7682   5  31   2.4244   3.0163   6.4999  -0.6739   2.1101  -0.9465   0.00    0.0
2023/11/29 13:41:29.000   12.581768584   77.034989640   564.9881   5  32   2.3851   2.8949   6.3168  -0.2940   1.7763  -0.4801   0.00    0.0
2023/11/29 13:41:30.000   12.581856753   77.035185907   563.3901   5  32   2.3849   2.8949   6.3167  -0.2943   1.7764  -0.4802   0.00    0.0
2023/11/29 13:41:31.000   12.581936629   77.035391366   564.5862   5  32   2.3848   2.8949   6.3166  -0.2947   1.7765  -0.4802   0.00    0.0
2023/11/29 13:41:32.000   12.582023289   77.035606041   565.2455   5  32   2.3847   2.8950   6.3165  -0.2951   1.7766  -0.4803   0.00    0.0
2023/11/29 13:41:33.000   12.582110944   77.035827094   565.6477   5  32   2.3845   2.8950   6.3164  -0.2954   1.7767  -0.4803   0.00    0.0
2023/11/29 13:41:34.000   12.582200923   77.036044322   566.0782   5  32   2.3844   2.8950   6.3163  -0.2958   1.7767  -0.4804   0.00    0.0
2023/11/29 13:41:35.000   12.582295964   77.036274101   565.9245   5  32   2.3843   2.8950   6.3162  -0.2962   1.7768  -0.4804   0.00    0.0
2023/11/29 13:41:36.000   12.582389478   77.036491731   565.3784   5  32   2.3841   2.8950   6.3161  -0.2965   1.7769  -0.4805   0.00    0.0
2023/11/29 13:41:37.000   12.582496152   77.036711973   566.6212   5  32   2.3840   2.8950   6.3160  -0.2969   1.7770  -0.4805   0.00    0.0
2023/11/29 13:41:38.000   12.582609030   77.036928455   566.5157   5  32   2.3839   2.8951   6.3159  -0.2973   1.7771  -0.4806   0.00    0.0
2023/11/29 13:41:39.000   12.582736326   77.037138053   565.6706   5  32   2.3837   2.8951   6.3158  -0.2976   1.7771  -0.4806   0.00    0.0
2023/11/29 13:41:40.000   12.582875009   77.037352058   564.9234   5  32   2.3836   2.8951   6.3157  -0.2980   1.7772  -0.4807   0.00    0.0
2023/11/29 13:41:41.000   12.583015984   77.037562355   565.8399   5  31   2.4753   2.9411   6.3653  -0.6596   1.8894  -0.8724   0.00    0.0
2023/11/29 13:41:42.000   12.583169961   77.037757861   564.5964   5  31   2.4751   2.9411   6.3652  -0.6597   1.8894  -0.8724   0.00    0.0
2023/11/29 13:41:43.000   12.583333968   77.037967243   565.2787   5  31   2.4750   2.9411   6.3650  -0.6598   1.8895  -0.8723   0.00    0.0
2023/11/29 13:41:44.000   12.583509714   77.038173730   566.4713   5  32   2.3831   2.8952   6.3154  -0.2995   1.7776  -0.4810   0.00    0.0
2023/11/29 13:41:45.000   12.583680233   77.038376178   565.8104   5  32   2.3829   2.8952   6.3153  -0.2998   1.7776  -0.4811   0.00    0.0
2023/11/29 13:41:46.000   12.583847592   77.038573784   566.3050   5  32   2.3828   2.8952   6.3152  -0.3002   1.7777  -0.4812   0.00    0.0
2023/11/29 13:41:47.000   12.584028712   77.038778925   565.6305   5  32   2.3827   2.8952   6.3151  -0.3006   1.7778  -0.4813   0.00    0.0
2023/11/29 13:41:48.000   12.584206116   77.038988271   565.9767   5  32   2.3825   2.8952   6.3150  -0.3009   1.7779  -0.4814   0.00    0.0
2023/11/29 13:41:49.000   12.584386935   77.039193602   563.9746   5  32   2.3824   2.8952   6.3149  -0.3013   1.7780  -0.4815   0.00    0.0
2023/11/29 13:41:50.000   12.584573279   77.039402500   563.2859   5  32   2.3823   2.8952   6.3148  -0.3016   1.7781  -0.4816   0.00    0.0
2023/11/29 13:41:51.000   12.584753516   77.039608890   563.0703   5  32   2.3821   2.8953   6.3147  -0.3020   1.7781  -0.4817   0.00    0.0
2023/11/29 13:41:52.000   12.584947554   77.039827632   562.4673   5  32   2.3820   2.8953   6.3146  -0.3024   1.7782  -0.4818   0.00    0.0
2023/11/29 13:41:53.000   12.585135777   77.040040279   560.9256   5  32   2.3819   2.8953   6.3145  -0.3027   1.7783  -0.4819   0.00    0.0
2023/11/29 13:41:54.000   12.585323164   77.040255408   561.0656   5  32   2.3817   2.8953   6.3144  -0.3031   1.7784  -0.4820   0.00    0.0
2023/11/29 13:41:55.000   12.585510934   77.040470929   560.6134   5  32   2.3816   2.8953   6.3143  -0.3035   1.7785  -0.4820   0.00    0.0
2023/11/29 13:41:56.000   12.585700792   77.040687794   560.6791   5  32   2.3815   2.8953   6.3142  -0.3038   1.7786  -0.4821   0.00    0.0
2023/11/29 13:41:57.000   12.585892256   77.040901936   560.1314   5  32   2.3813   2.8954   6.3141  -0.3042   1.7786  -0.4822   0.00    0.0
2023/11/29 13:41:58.000   12.586072795   77.041115331   560.0999   5  32   2.3812   2.8954   6.3140  -0.3045   1.7787  -0.4823   0.00    0.0
2023/11/29 13:41:59.000   12.586253736   77.041327322   561.1274   5  32   2.3811   2.8954   6.3139  -0.3049   1.7788  -0.4824   0.00    0.0
2023/11/29 13:42:00.000   12.586431523   77.041525791   561.4045   5  32   2.3809   2.8954   6.3138  -0.3053   1.7789  -0.4825   0.00    0.0
2023/11/29 13:42:01.000   12.586608319   77.041725759   560.9615   5  32   2.3808   2.8954   6.3137  -0.3056   1.7790  -0.4826   0.00    0.0
2023/11/29 13:42:02.000   12.586780015   77.041923288   561.0424   5  32   2.3807   2.8954   6.3136  -0.3060   1.7791  -0.4827   0.00    0.0
2023/11/29 13:42:03.000   12.586948965   77.042127739   562.0919   5  32   2.3805   2.8954   6.3135  -0.3063   1.7791  -0.4828   0.00    0.0
2023/11/29 13:42:04.000   12.587119483   77.042315698   561.1208   5  32   2.3804   2.8955   6.3135  -0.3067   1.7792  -0.4828   0.00    0.0
2023/11/29 13:42:05.000   12.587291518   77.042513616   560.8410   5  32   2.3803   2.8955   6.3134  -0.3070   1.7793  -0.4829   0.00    0.0
2023/11/29 13:42:06.000   12.587456803   77.042711147   561.2817   5  32   2.3801   2.8955   6.3133  -0.3074   1.7794  -0.4830   0.00    0.0
2023/11/29 13:42:07.000   12.587626053   77.042906896   560.7782   5  32   2.3800   2.8955   6.3132  -0.3078   1.7795  -0.4831   0.00    0.0
2023/11/29 13:42:08.000   12.587786311   77.043101030   560.9611   5  32   2.3799   2.8955   6.3131  -0.3081   1.7796  -0.4832   0.00    0.0
2023/11/29 13:42:09.000   12.587952506   77.043304988   559.5800   5  32   2.3797   2.8955   6.3130  -0.3085   1.7796  -0.4833   0.00    0.0
2023/11/29 13:42:10.000   12.588126986   77.043505288   560.1454   5  32   2.3796   2.8956   6.3129  -0.3088   1.7797  -0.4833   0.00    0.0
2023/11/29 13:42:11.000   12.588291396   77.043715054   560.8544   5  32   2.3795   2.8956   6.3128  -0.3092   1.7798  -0.4834   0.00    0.0
2023/11/29 13:42:12.000   12.588461592   77.043911864   558.0690   5  32   2.3793   2.8956   6.3127  -0.3095   1.7799  -0.4835   0.00    0.0
2023/11/29 13:42:13.000   12.588638692   77.044130138   558.5890   5  32   2.3792   2.8956   6.3126  -0.3099   1.7800  -0.4836   0.00    0.0
2023/11/29 13:42:14.000   12.588802570   77.044335653   558.7368   5  32   2.3791   2.8956   6.3125  -0.3102   1.7801  -0.4837   0.00    0.0
2023/11/29 13:42:15.000   12.588975717   77.044548145   556.9998   5  32   2.3789   2.8956   6.3124  -0.3106   1.7802  -0.4838   0.00    0.0
2023/11/29 13:42:16.000   12.589151012   77.044763147   557.1722   5  32   2.3788   2.8957   6.3123  -0.3109   1.7802  -0.4838   0.00    0.0
2023/11/29 13:42:17.000   12.589324996   77.044980268   557.5265   5  32   2.3787   2.8957   6.3122  -0.3113   1.7803  -0.4839   0.00    0.0
2023/11/29 13:42:18.000   12.589497115   77.045200647   557.3604   5  32   2.3785   2.8957   6.3121  -0.3116   1.7804  -0.4840   0.00    0.0
2023/11/29 13:42:19.000   12.589676262   77.045417332   556.3628   5  32   2.3784   2.8957   6.3120  -0.3120   1.7805  -0.4841   0.00    0.0
2023/11/29 13:42:20.000   12.589846941   77.045647552   556.3003   5  32   2.3783   2.8957   6.3119  -0.3123   1.7806  -0.4842   0.00    0.0
2023/11/29 13:42:21.000   12.590029615   77.045871143   555.2381   5  32   2.3781   2.8957   6.3118  -0.3127   1.7806  -0.4843   0.00    0.0
2023/11/29 13:42:22.000   12.590202800   77.046104387   556.5259   5  32   2.3780   2.8957   6.3117  -0.3130   1.7807  -0.4843   0.00    0.0
2023/11/29 13:42:23.000   12.590386418   77.046331294   555.6601   5  32   2.3779   2.8958   6.3116  -0.3134   1.7808  -0.4844   0.00    0.0
2023/11/29 13:42:24.000   12.590546786   77.046563003   548.6804   5  32   2.3777   2.8958   6.3115  -0.3137   1.7809  -0.4845   0.00    0.0
2023/11/29 13:42:25.000   12.590730695   77.046802927   551.9616   5  32   2.3776   2.8958   6.3114  -0.3141   1.7810  -0.4846   0.00    0.0
2023/11/29 13:42:26.000   12.590920460   77.047030438   552.1962   5  32   2.3775   2.8958   6.3113  -0.3144   1.7810  -0.4847   0.00    0.0
2023/11/29 13:42:27.000   12.591102329   77.047257423   552.1836   5  32   2.3773   2.8958   6.3112  -0.3148   1.7811  -0.4848   0.00    0.0
2023/11/29 13:42:28.000   12.591288623   77.047490075   551.9600   5  32   2.3772   2.8958   6.3111  -0.3151   1.7812  -0.4849   0.00    0.0
2023/11/29 13:42:29.000   12.591474911   77.047720704   551.4669   5  32   2.3771   2.8958   6.3110  -0.3155   1.7813  -0.4850   0.00    0.0
2023/11/29 13:42:30.000   12.591657926   77.047960983   551.6557   5  32   2.3769   2.8959   6.3109  -0.3158   1.7814  -0.4850   0.00    0.0
2023/11/29 13:42:31.000   12.591842588   77.048200358   551.4992   5  32   2.3768   2.8959   6.3108  -0.3162   1.7814  -0.4851   0.00    0.0
2023/11/29 13:42:32.000   12.592025164   77.048436206   550.5469   5  32   2.3767   2.8959   6.3107  -0.3165   1.7815  -0.4852   0.00    0.0
2023/11/29 13:42:33.000   12.592206948   77.048675272   549.7673   5  32   2.3765   2.8959   6.3106  -0.3169   1.7816  -0.4853   0.00    0.0
2023/11/29 13:42:34.000   12.592394568   77.048912318   549.3365   5  32   2.3764   2.8959   6.3105  -0.3172   1.7817  -0.4854   0.00    0.0
2023/11/29 13:42:35.000   12.592577210   77.049148915   549.0877   5  32   2.3763   2.8959   6.3104  -0.3176   1.7818  -0.4855   0.00    0.0
2023/11/29 13:42:36.000   12.592771617   77.049392188   548.1759   5  32   2.3761   2.8959   6.3103  -0.3179   1.7819  -0.4856   0.00    0.0
2023/11/29 13:42:37.000   12.592959261   77.049633466   547.1566   5  32   2.3760   2.8960   6.3102  -0.3183   1.7819  -0.4857   0.00    0.0
2023/11/29 13:42:38.000   12.593148138   77.049878479   547.5150   5  32   2.3759   2.8960   6.3101  -0.3186   1.7820  -0.4858   0.00    0.0
2023/11/29 13:42:39.000   12.593339997   77.050120231   546.8349   5  32   2.3757   2.8960   6.3100  -0.3190   1.7821  -0.4858   0.00    0.0
2023/11/29 13:42:40.000   12.593526203   77.050363820   546.2498   5  32   2.3756   2.8960   6.3099  -0.3193   1.7822  -0.4859   0.00    0.0
2023/11/29 13:42:41.000   12.593718233   77.050615498   547.0641   5  32   2.3755   2.8960   6.3098  -0.3196   1.7822  -0.4860   0.00    0.0
2023/11/29 13:42:42.000   12.593901659   77.050852638   546.3893   5  32   2.3753   2.8960   6.3097  -0.3200   1.7823  -0.4861   0.00    0.0
2023/11/29 13:42:43.000   12.594087395   77.051095776   547.1529   5  32   2.3752   2.8960   6.3096  -0.3203   1.7824  -0.4862   0.00    0.0
2023/11/29 13:42:44.000   12.594255465   77.051327433   545.8585   5  32   2.3751   2.8961   6.3095  -0.3207   1.7825  -0.4863   0.00    0.0
2023/11/29 13:42:45.000   12.594418170   77.051565480   546.4707   5  32   2.3749   2.8961   6.3094  -0.3210   1.7826  -0.4863   0.00    0.0
2023/11/29 13:42:46.000   12.594564578   77.051796578   546.1034   5  32   2.3748   2.8961   6.3094  -0.3214   1.7826  -0.4864   0.00    0.0
2023/11/29 13:42:47.000   12.594689040   77.052023634   545.8648   5  32   2.3747   2.8961   6.3093  -0.3217   1.7827  -0.4865   0.00    0.0
2023/11/29 13:42:48.000   12.594807214   77.052260902   545.6861   5  32   2.3745   2.8961   6.3092  -0.3220   1.7828  -0.4865   0.00    0.0
2023/11/29 13:42:49.000   12.594916385   77.052508393   545.7376   5  32   2.3744   2.8961   6.3091  -0.3224   1.7829  -0.4866   0.00    0.0
2023/11/29 13:42:50.000   12.595009174   77.052760192   545.8441   5  32   2.3743   2.8961   6.3090  -0.3227   1.7830  -0.4866   0.00    0.0
2023/11/29 13:42:51.000   12.595092778   77.053011317   545.1673   5  32   2.3741   2.8962   6.3089  -0.3231   1.7830  -0.4867   0.00    0.0
2023/11/29 13:42:52.000   12.595171660   77.053271752   545.6378   5  32   2.3740   2.8962   6.3088  -0.3234   1.7831  -0.4867   0.00    0.0
2023/11/29 13:42:53.000   12.595256455   77.053530275   543.3814   5  32   2.3739   2.8962   6.3087  -0.3237   1.7832  -0.4867   0.00    0.0
2023/11/29 13:42:54.000   12.595334044   77.053796844   543.2927   5  32   2.3738   2.8962   6.3086  -0.3241   1.7833  -0.4868   0.00    0.0
2023/11/29 13:42:55.000   12.595410750   77.054066532   544.4751   5  32   2.3736   2.8962   6.3085  -0.3244   1.7833  -0.4868   0.00    0.0
2023/11/29 13:42:56.000   12.595493648   77.054337897   543.4647   5  32   2.3735   2.8962   6.3084  -0.3247   1.7834  -0.4868   0.00    0.0
2023/11/29 13:42:57.000   12.595569708   77.054597345   543.0847   5  32   2.3734   2.8962   6.3083  -0.3251   1.7835  -0.4869   0.00    0.0
2023/11/29 13:42:58.000   12.595649047   77.054864028   543.3212   5  32   2.3732   2.8963   6.3082  -0.3254   1.7836  -0.4869   0.00    0.0
2023/11/29 13:42:59.000   12.595726400   77.055123217   542.5340   5  32   2.3731   2.8963   6.3081  -0.3258   1.7836  -0.4869   0.00    0.0
2023/11/29 13:43:00.000   12.595804788   77.055378740   541.5329   5  32   2.3730   2.8963   6.3080  -0.3261   1.7837  -0.4870   0.00    0.0
2023/11/29 13:43:01.000   12.595878069   77.055632966   542.3228   5  32   2.3728   2.8963   6.3079  -0.3264   1.7838  -0.4870   0.00    0.0
2023/11/29 13:43:02.000   12.595949379   77.055868970   541.2949   5  32   2.3727   2.8963   6.3078  -0.3268   1.7839  -0.4870   0.00    0.0
2023/11/29 13:43:03.000   12.596010983   77.056082332   542.3948   5  32   2.3726   2.8963   6.3077  -0.3271   1.7840  -0.4870   0.00    0.0
2023/11/29 13:43:04.000   12.596073837   77.056291989   542.3951   5  32   2.3724   2.8963   6.3076  -0.3274   1.7840  -0.4871   0.00    0.0
2023/11/29 13:43:05.000   12.596123666   77.056475373   540.2723   5  32   2.3723   2.8964   6.3075  -0.3278   1.7841  -0.4871   0.00    0.0
2023/11/29 13:43:06.000   12.596186133   77.056669535   540.2508   5  32   2.3722   2.8964   6.3074  -0.3281   1.7842  -0.4871   0.00    0.0
2023/11/29 13:43:07.000   12.596241466   77.056856581   539.8966   5  32   2.3720   2.8964   6.3073  -0.3284   1.7843  -0.4871   0.00    0.0
2023/11/29 13:43:08.000   12.596304379   77.057046200   538.7339   5  32   2.3719   2.8964   6.3072  -0.3288   1.7844  -0.4872   0.00    0.0
2023/11/29 13:43:09.000   12.596357944   77.057233158   539.8216   5  32   2.3718   2.8964   6.3071  -0.3291   1.7845  -0.4872   0.00    0.0
2023/11/29 13:43:10.000   12.596414924   77.057421049   538.1386   5  32   2.3716   2.8964   6.3070  -0.3294   1.7845  -0.4872   0.00    0.0
2023/11/29 13:43:11.000   12.596480088   77.057617914   537.0465   5  32   2.3715   2.8965   6.3069  -0.3298   1.7846  -0.4872   0.00    0.0
2023/11/29 13:43:12.000   12.596541323   77.057832818   537.4161   5  32   2.3714   2.8965   6.3068  -0.3301   1.7847  -0.4873   0.00    0.0
2023/11/29 13:43:13.000   12.596606115   77.058052663   535.9315   5  32   2.3713   2.8965   6.3067  -0.3304   1.7848  -0.4873   0.00    0.0
2023/11/29 13:43:14.000   12.596677317   77.058286899   535.8704   5  32   2.3711   2.8965   6.3066  -0.3308   1.7849  -0.4873   0.00    0.0
2023/11/29 13:43:15.000   12.596743974   77.058525747   535.6132   5  32   2.3710   2.8965   6.3065  -0.3311   1.7849  -0.4873   0.00    0.0
2023/11/29 13:43:16.000   12.596820317   77.058773008   534.3902   5  32   2.3709   2.8965   6.3064  -0.3314   1.7850  -0.4874   0.00    0.0
2023/11/29 13:43:17.000   12.596894743   77.059025622   534.1923   5  32   2.3707   2.8966   6.3063  -0.3318   1.7851  -0.4874   0.00    0.0
2023/11/29 13:43:18.000   12.596973126   77.059274810   532.7162   5  32   2.3706   2.8966   6.3062  -0.3321   1.7852  -0.4874   0.00    0.0
2023/11/29 13:43:19.000   12.597048789   77.059541797   535.2493   5  32   2.3705   2.8966   6.3061  -0.3324   1.7853  -0.4875   0.00    0.0
2023/11/29 13:43:20.000   12.597126924   77.059798699   534.0756   5  32   2.3703   2.8966   6.3060  -0.3328   1.7853  -0.4875   0.00    0.0
2023/11/29 13:43:21.000   12.597202005   77.060051038   534.6394   5  32   2.3702   2.8966   6.3059  -0.3331   1.7854  -0.4875   0.00    0.0
2023/11/29 13:43:22.000   12.597278037   77.060300692   533.0041   5  32   2.3701   2.8966   6.3058  -0.3334   1.7855  -0.4875   0.00    0.0
2023/11/29 13:43:23.000   12.597360186   77.060572775   534.0144   5  32   2.3699   2.8966   6.3057  -0.3337   1.7856  -0.4876   0.00    0.0
2023/11/29 13:43:24.000   12.597435183   77.060836861   533.7366   5  32   2.3698   2.8967   6.3056  -0.3341   1.7856  -0.4876   0.00    0.0
2023/11/29 13:43:25.000   12.597516063   77.061114662   534.4074   5  32   2.3697   2.8967   6.3055  -0.3344   1.7857  -0.4876   0.00    0.0
2023/11/29 13:43:26.000   12.597594556   77.061388640   533.9691   5  32   2.3695   2.8967   6.3054  -0.3347   1.7858  -0.4877   0.00    0.0
2023/11/29 13:43:27.000   12.597677159   77.061675586   534.2261   5  32   2.3694   2.8967   6.3053  -0.3351   1.7859  -0.4877   0.00    0.0
2023/11/29 13:43:28.000   12.597763939   77.061969252   534.1062   5  32   2.3693   2.8967   6.3052  -0.3354   1.7859  -0.4877   0.00    0.0
2023/11/29 13:43:29.000   12.597848438   77.062249081   534.0089   5  32   2.3691   2.8967   6.3051  -0.3357   1.7860  -0.4878   0.00    0.0
2023/11/29 13:43:30.000   12.597930072   77.062525137   535.7239   5  32   2.3690   2.8967   6.3050  -0.3360   1.7861  -0.4878   0.00    0.0
2023/11/29 13:43:31.000   12.598014150   77.062804126   535.8233   5  32   2.3689   2.8967   6.3048  -0.3364   1.7862  -0.4878   0.00    0.0
2023/11/29 13:43:32.000   12.598096357   77.063080144   536.9933   5  32   2.3687   2.8968   6.3047  -0.3367   1.7862  -0.4879   0.00    0.0
2023/11/29 13:43:33.000   12.598179574   77.063351982   538.4291   5  32   2.3686   2.8968   6.3046  -0.3370   1.7863  -0.4879   0.00    0.0
2023/11/29 13:43:34.000   12.598262638   77.063621861   538.1257   5  32   2.3685   2.8968   6.3045  -0.3374   1.7864  -0.4879   0.00    0.0
2023/11/29 13:43:35.000   12.598339730   77.063891619   539.6953   5  32   2.3684   2.8968   6.3044  -0.3377   1.7865  -0.4879   0.00    0.0
2023/11/29 13:43:36.000   12.598421713   77.064161652   538.2023   5  32   2.3682   2.8968   6.3043  -0.3380   1.7865  -0.4880   0.00    0.0
2023/11/29 13:43:37.000   12.598501690   77.064432601   539.2958   5  32   2.3681   2.8968   6.3042  -0.3383   1.7866  -0.4880   0.00    0.0
2023/11/29 13:43:38.000   12.598582860   77.064703676   540.5032   5  32   2.3680   2.8968   6.3041  -0.3387   1.7867  -0.4880   0.00    0.0
2023/11/29 13:43:39.000   12.598662846   77.064973761   540.7495   5  32   2.3678   2.8969   6.3040  -0.3390   1.7868  -0.4881   0.00    0.0
2023/11/29 13:43:40.000   12.598737879   77.065231048   540.9418   5  32   2.3677   2.8969   6.3039  -0.3393   1.7868  -0.4881   0.00    0.0
2023/11/29 13:43:41.000   12.598814475   77.065499385   540.7173   5  32   2.3676   2.8969   6.3038  -0.3396   1.7869  -0.4881   0.00    0.0
2023/11/29 13:43:42.000   12.598891610   77.065763169   540.3975   5  32   2.3674   2.8969   6.3037  -0.3399   1.7870  -0.4882   0.00    0.0
2023/11/29 13:43:43.000   12.598969184   77.066025436   540.2765   5  32   2.3673   2.8969   6.3036  -0.3403   1.7871  -0.4882   0.00    0.0
2023/11/29 13:43:44.000   12.599047218   77.066290412   540.3839   5  32   2.3672   2.8969   6.3035  -0.3406   1.7871  -0.4882   0.00    0.0
2023/11/29 13:43:45.000   12.599126404   77.066549480   540.2328   5  32   2.3670   2.8969   6.3034  -0.3409   1.7872  -0.4882   0.00    0.0
2023/11/29 13:43:46.000   12.599203246   77.066813507   539.6837   5  32   2.3669   2.8970   6.3033  -0.3412   1.7873  -0.4883   0.00    0.0
2023/11/29 13:43:47.000   12.599280425   77.067065237   539.8254   5  32   2.3668   2.8970   6.3032  -0.3416   1.7874  -0.4883   0.00    0.0
2023/11/29 13:43:48.000   12.599355214   77.067313296   539.3469   5  32   2.3667   2.8970   6.3031  -0.3419   1.7874  -0.4883   0.00    0.0
2023/11/29 13:43:49.000   12.599427863   77.067558371   540.2202   5  32   2.3665   2.8970   6.3030  -0.3422   1.7875  -0.4884   0.00    0.0
2023/11/29 13:43:50.000   12.599502615   77.067805786   540.9283   5  32   2.3664   2.8970   6.3029  -0.3425   1.7876  -0.4884   0.00    0.0
2023/11/29 13:43:51.000   12.599578297   77.068039016   539.4399   5  32   2.3663   2.8970   6.3028  -0.3429   1.7877  -0.4884   0.00    0.0
2023/11/29 13:43:52.000   12.599658608   77.068282548   540.0919   5  32   2.3661   2.8970   6.3027  -0.3432   1.7878  -0.4884   0.00    0.0
2023/11/29 13:43:53.000   12.599735138   77.068516969   538.9655   5  32   2.3660   2.8971   6.3026  -0.3435   1.7878  -0.4885   0.00    0.0
2023/11/29 13:43:54.000   12.599813512   77.068763233   540.5083   5  32   2.3659   2.8971   6.3025  -0.3438   1.7879  -0.4885   0.00    0.0
2023/11/29 13:43:55.000   12.599887277   77.068989527   540.2238   5  32   2.3657   2.8971   6.3024  -0.3441   1.7880  -0.4885   0.00    0.0
2023/11/29 13:43:56.000   12.599956826   77.069232659   540.6209   5  32   2.3656   2.8971   6.3023  -0.3445   1.7881  -0.4885   0.00    0.0
2023/11/29 13:43:57.000   12.600021720   77.069459809   540.2108   5  32   2.3655   2.8971   6.3022  -0.3448   1.7882  -0.4886   0.00    0.0
2023/11/29 13:43:58.000   12.600096823   77.069699583   539.3092   5  32   2.3653   2.8971   6.3021  -0.3451   1.7882  -0.4886   0.00    0.0
2023/11/29 13:43:59.000   12.600168041   77.069938693   539.0412   5  32   2.3652   2.8971   6.3020  -0.3454   1.7883  -0.4886   0.00    0.0
2023/11/29 13:44:00.000   12.600237086   77.070175634   540.2951   5  32   2.3651   2.8972   6.3019  -0.3457   1.7884  -0.4886   0.00    0.0
2023/11/29 13:44:01.000   12.600309757   77.070410373   539.5132   5  32   2.3650   2.8972   6.3018  -0.3460   1.7885  -0.4887   0.00    0.0
2023/11/29 13:44:02.000   12.600381966   77.070646042   540.5751   5  32   2.3648   2.8972   6.3017  -0.3464   1.7885  -0.4887   0.00    0.0
2023/11/29 13:44:03.000   12.600458961   77.070881350   538.7059   5  32   2.3647   2.8972   6.3016  -0.3467   1.7886  -0.4887   0.00    0.0
2023/11/29 13:44:04.000   12.600533441   77.071122630   537.8813   5  32   2.3646   2.8972   6.3015  -0.3470   1.7887  -0.4887   0.00    0.0
2023/11/29 13:44:05.000   12.600604561   77.071369333   539.6671   5  32   2.3644   2.8972   6.3014  -0.3473   1.7888  -0.4888   0.00    0.0
2023/11/29 13:44:06.000   12.600677343   77.071616779   540.0399   5  32   2.3643   2.8972   6.3013  -0.3476   1.7889  -0.4888   0.00    0.0
2023/11/29 13:44:07.000   12.600754950   77.071867138   541.5689   5  32   2.3642   2.8973   6.3012  -0.3480   1.7889  -0.4888   0.00    0.0
2023/11/29 13:44:08.000   12.600831786   77.072120153   542.1954   5  32   2.3641   2.8973   6.3011  -0.3483   1.7890  -0.4888   0.00    0.0
2023/11/29 13:44:09.000   12.600905563   77.072364119   543.2272   5  32   2.3639   2.8973   6.3009  -0.3486   1.7891  -0.4889   0.00    0.0
2023/11/29 13:44:10.000   12.600988150   77.072604299   543.6457   5  32   2.3638   2.8973   6.3008  -0.3489   1.7892  -0.4889   0.00    0.0
2023/11/29 13:44:11.000   12.601073544   77.072854325   544.2959   5  32   2.3637   2.8973   6.3007  -0.3492   1.7892  -0.4889   0.00    0.0
2023/11/29 13:44:12.000   12.601165486   77.073091975   544.6212   5  32   2.3635   2.8973   6.3006  -0.3495   1.7893  -0.4890   0.00    0.0
2023/11/29 13:44:13.000   12.601262244   77.073328881   545.0012   5  32   2.3634   2.8973   6.3005  -0.3499   1.7894  -0.4890   0.00    0.0
2023/11/29 13:44:14.000   12.601364846   77.073566308   546.1460   5  32   2.3633   2.8974   6.3004  -0.3502   1.7895  -0.4890   0.00    0.0
2023/11/29 13:44:15.000   12.601472123   77.073795862   546.2443   5  32   2.3631   2.8974   6.3003  -0.3505   1.7896  -0.4891   0.00    0.0
2023/11/29 13:44:16.000   12.601589674   77.074020180   546.2476   5  32   2.3630   2.8974   6.3002  -0.3508   1.7896  -0.4891   0.00    0.0
2023/11/29 13:44:17.000   12.601708944   77.074243540   546.5259   5  32   2.3629   2.8974   6.3001  -0.3511   1.7897  -0.4892   0.00    0.0
2023/11/29 13:44:18.000   12.601836945   77.074457482   546.6743   5  32   2.3628   2.8974   6.3000  -0.3514   1.7898  -0.4892   0.00    0.0
2023/11/29 13:44:19.000   12.601972207   77.074671076   547.3757   5  32   2.3626   2.8974   6.2999  -0.3517   1.7899  -0.4893   0.00    0.0
2023/11/29 13:44:20.000   12.602105737   77.074873899   546.3540   5  32   2.3625   2.8975   6.2998  -0.3521   1.7900  -0.4893   0.00    0.0
2023/11/29 13:44:21.000   12.602249370   77.075083380   547.7995   5  32   2.3624   2.8975   6.2997  -0.3524   1.7901  -0.4894   0.00    0.0
2023/11/29 13:44:22.000   12.602394599   77.075275283   547.7177   5  32   2.3622   2.8975   6.2996  -0.3527   1.7901  -0.4894   0.00    0.0
2023/11/29 13:44:23.000   12.602543167   77.075465716   547.8115   5  32   2.3621   2.8975   6.2995  -0.3530   1.7902  -0.4895   0.00    0.0
2023/11/29 13:44:24.000   12.602693537   77.075652822   547.1922   5  32   2.3620   2.8975   6.2994  -0.3533   1.7903  -0.4896   0.00    0.0
2023/11/29 13:44:25.000   12.602855277   77.075831607   546.6774   5  32   2.3619   2.8975   6.2993  -0.3536   1.7904  -0.4896   0.00    0.0
2023/11/29 13:44:26.000   12.603010404   77.076006058   545.8519   5  32   2.3617   2.8976   6.2992  -0.3539   1.7905  -0.4897   0.00    0.0
2023/11/29 13:44:27.000   12.603179657   77.076189209   546.3162   5  32   2.3616   2.8976   6.2991  -0.3542   1.7906  -0.4898   0.00    0.0
2023/11/29 13:44:28.000   12.603347964   77.076352216   545.7630   5  32   2.3615   2.8976   6.2990  -0.3546   1.7907  -0.4898   0.00    0.0
2023/11/29 13:44:29.000   12.603527605   77.076522895   546.4681   5  32   2.3613   2.8976   6.2989  -0.3549   1.7907  -0.4899   0.00    0.0
2023/11/29 13:44:30.000   12.603710071   77.076687187   545.9959   5  32   2.3612   2.8976   6.2988  -0.3552   1.7908  -0.4900   0.00    0.0
2023/11/29 13:44:31.000   12.603893114   77.076855069   545.6486   5  32   2.3611   2.8976   6.2987  -0.3555   1.7909  -0.4901   0.00    0.0
2023/11/29 13:44:32.000   12.604080776   77.077018025   544.9082   5  32   2.3610   2.8977   6.2986  -0.3558   1.7910  -0.4901   0.00    0.0
2023/11/29 13:44:33.000   12.604266454   77.077198474   544.9070   5  32   2.3608   2.8977   6.2985  -0.3561   1.7911  -0.4902   0.00    0.0
2023/11/29 13:44:34.000   12.604452874   77.077370914   544.5195   5  32   2.3607   2.8977   6.2984  -0.3564   1.7912  -0.4903   0.00    0.0
2023/11/29 13:44:35.000   12.604642905   77.077548336   544.0129   5  32   2.3606   2.8977   6.2983  -0.3567   1.7913  -0.4904   0.00    0.0
2023/11/29 13:44:36.000   12.604835325   77.077720512   543.6874   5  32   2.3604   2.8977   6.2982  -0.3570   1.7914  -0.4905   0.00    0.0
2023/11/29 13:44:37.000   12.605028273   77.077895277   543.7403   5  32   2.3603   2.8977   6.2981  -0.3574   1.7914  -0.4905   0.00    0.0
2023/11/29 13:44:38.000   12.605218282   77.078061447   543.2166   5  32   2.3602   2.8977   6.2980  -0.3577   1.7915  -0.4906   0.00    0.0
2023/11/29 13:44:39.000   12.605404414   77.078227217   542.8244   5  32   2.3601   2.8978   6.2979  -0.3580   1.7916  -0.4907   0.00    0.0
2023/11/29 13:44:40.000   12.605594688   77.078395508   543.3438   5  32   2.3599   2.8978   6.2978  -0.3583   1.7917  -0.4908   0.00    0.0
2023/11/29 13:44:41.000   12.605788553   77.078574385   544.6720   5  32   2.3598   2.8978   6.2976  -0.3586   1.7918  -0.4909   0.00    0.0
2023/11/29 13:44:42.000   12.605986487   77.078740353   542.4682   5  32   2.3597   2.8978   6.2975  -0.3589   1.7919  -0.4909   0.00    0.0
2023/11/29 13:44:43.000   12.606174585   77.078914589   543.1574   5  32   2.3596   2.8978   6.2974  -0.3592   1.7920  -0.4910   0.00    0.0
2023/11/29 13:44:44.000   12.606365896   77.079082516   542.9370   5  32   2.3594   2.8978   6.2973  -0.3595   1.7921  -0.4911   0.00    0.0
2023/11/29 13:44:45.000   12.606562509   77.079254171   542.1990   5  32   2.3593   2.8979   6.2972  -0.3598   1.7922  -0.4912   0.00    0.0
2023/11/29 13:44:46.000   12.606755566   77.079424552   543.4642   5  32   2.3592   2.8979   6.2971  -0.3601   1.7922  -0.4913   0.00    0.0
2023/11/29 13:44:47.000   12.606952459   77.079595343   541.9468   5  32   2.3590   2.8979   6.2970  -0.3604   1.7923  -0.4914   0.00    0.0
2023/11/29 13:44:48.000   12.607148079   77.079767605   543.8115   5  32   2.3589   2.8979   6.2969  -0.3608   1.7924  -0.4914   0.00    0.0
2023/11/29 13:44:49.000   12.607341814   77.079932251   542.1573   5  32   2.3588   2.8979   6.2968  -0.3611   1.7925  -0.4915   0.00    0.0
2023/11/29 13:44:50.000   12.607534668   77.080102410   543.0800   5  32   2.3587   2.8979   6.2967  -0.3614   1.7926  -0.4916   0.00    0.0
2023/11/29 13:44:51.000   12.607727416   77.080271428   542.4339   5  32   2.3585   2.8980   6.2966  -0.3617   1.7927  -0.4917   0.00    0.0
2023/11/29 13:44:52.000   12.607913875   77.080436979   543.4046   5  32   2.3584   2.8980   6.2965  -0.3620   1.7928  -0.4918   0.00    0.0
2023/11/29 13:44:53.000   12.608106924   77.080604327   542.6925   5  32   2.3583   2.8980   6.2964  -0.3623   1.7929  -0.4918   0.00    0.0
2023/11/29 13:44:54.000   12.608294212   77.080768684   543.3590   5  32   2.3582   2.8980   6.2963  -0.3626   1.7929  -0.4919   0.00    0.0
2023/11/29 13:44:55.000   12.608478121   77.080941058   544.2301   5  32   2.3580   2.8980   6.2962  -0.3629   1.7930  -0.4920   0.00    0.0
2023/11/29 13:44:56.000   12.608668395   77.081104308   543.7297   5  32   2.3579   2.8980   6.2961  -0.3632   1.7931  -0.4921   0.00    0.0
2023/11/29 13:44:57.000   12.608865212   77.081271044   542.3377   5  32   2.3578   2.8981   6.2960  -0.3635   1.7932  -0.4921   0.00    0.0
2023/11/29 13:44:58.000   12.609060350   77.081443903   543.5162   5  32   2.3576   2.8981   6.2959  -0.3638   1.7933  -0.4922   0.00    0.0
2023/11/29 13:44:59.000   12.609260842   77.081621445   544.6302   5  32   2.3575   2.8981   6.2958  -0.3641   1.7934  -0.4923   0.00    0.0
2023/11/29 13:45:00.000   12.609461838   77.081789266   543.7246   5  32   2.3574   2.8981   6.2957  -0.3644   1.7935  -0.4924   0.00    0.0
2023/11/29 13:45:01.000   12.609668443   77.081974368   544.9923   5  32   2.3573   2.8981   6.2956  -0.3647   1.7936  -0.4925   0.00    0.0
2023/11/29 13:45:02.000   12.609872256   77.082144303   544.5888   5  32   2.3571   2.8981   6.2955  -0.3650   1.7937  -0.4926   0.00    0.0
2023/11/29 13:45:03.000   12.610075949   77.082314560   542.9629   5  32   2.3570   2.8982   6.2954  -0.3653   1.7937  -0.4926   0.00    0.0
2023/11/29 13:45:04.000   12.610282310   77.082503927   544.9665   5  32   2.3569   2.8982   6.2952  -0.3656   1.7938  -0.4927   0.00    0.0
2023/11/29 13:45:05.000   12.610483138   77.082675291   544.6255   5  32   2.3568   2.8982   6.2951  -0.3660   1.7939  -0.4928   0.00    0.0
2023/11/29 13:45:06.000   12.610683714   77.082847701   544.0324   5  32   2.3566   2.8982   6.2950  -0.3663   1.7940  -0.4929   0.00    0.0
2023/11/29 13:45:07.000   12.610891837   77.083032120   545.6790   5  32   2.3565   2.8982   6.2949  -0.3666   1.7941  -0.4930   0.00    0.0
2023/11/29 13:45:08.000   12.611093668   77.083207071   545.2654   5  32   2.3564   2.8982   6.2948  -0.3669   1.7942  -0.4931   0.00    0.0
2023/11/29 13:45:09.000   12.611293121   77.083384711   546.5143   5  32   2.3563   2.8983   6.2947  -0.3672   1.7943  -0.4931   0.00    0.0
2023/11/29 13:45:10.000   12.611495435   77.083554776   545.9977   5  32   2.3561   2.8983   6.2946  -0.3675   1.7943  -0.4932   0.00    0.0
2023/11/29 13:45:11.000   12.611689380   77.083727795   548.1649   5  32   2.3560   2.8983   6.2945  -0.3678   1.7944  -0.4933   0.00    0.0
2023/11/29 13:45:12.000   12.611884202   77.083900918   548.7506   5  32   2.3559   2.8983   6.2944  -0.3681   1.7945  -0.4934   0.00    0.0
2023/11/29 13:45:13.000   12.612078488   77.084070478   549.1964   5  32   2.3557   2.8983   6.2943  -0.3684   1.7946  -0.4935   0.00    0.0
2023/11/29 13:45:14.000   12.612260427   77.084225478   549.0017   5  32   2.3556   2.8983   6.2942  -0.3687   1.7947  -0.4935   0.00    0.0
2023/11/29 13:45:15.000   12.612447210   77.084387659   549.5452   5  32   2.3555   2.8984   6.2941  -0.3690   1.7948  -0.4936   0.00    0.0
2023/11/29 13:45:16.000   12.612626744   77.084544517   548.7313   5  32   2.3554   2.8984   6.2940  -0.3693   1.7949  -0.4937   0.00    0.0
2023/11/29 13:45:17.000   12.612816050   77.084717608   550.2189   5  32   2.3552   2.8984   6.2939  -0.3696   1.7950  -0.4938   0.00    0.0
2023/11/29 13:45:18.000   12.613006619   77.084883519   551.1409   5  32   2.3551   2.8984   6.2938  -0.3699   1.7951  -0.4938   0.00    0.0
2023/11/29 13:45:19.000   12.613195804   77.085046336   550.0435   5  32   2.3550   2.8984   6.2937  -0.3702   1.7951  -0.4939   0.00    0.0
2023/11/29 13:45:20.000   12.613388622   77.085213469   550.9149   5  32   2.3549   2.8984   6.2936  -0.3705   1.7952  -0.4940   0.00    0.0
2023/11/29 13:45:21.000   12.613582041   77.085380486   551.3854   5  32   2.3547   2.8985   6.2935  -0.3708   1.7953  -0.4941   0.00    0.0
2023/11/29 13:45:22.000   12.613778173   77.085557530   550.8223   5  32   2.3546   2.8985   6.2934  -0.3711   1.7954  -0.4942   0.00    0.0
2023/11/29 13:45:23.000   12.613972194   77.085725122   551.1235   5  32   2.3545   2.8985   6.2932  -0.3714   1.7955  -0.4942   0.00    0.0
2023/11/29 13:45:24.000   12.614172597   77.085904304   551.8993   5  32   2.3544   2.8985   6.2931  -0.3717   1.7956  -0.4943   0.00    0.0
2023/11/29 13:45:25.000   12.614373700   77.086079805   551.6092   5  32   2.3542   2.8985   6.2930  -0.3720   1.7957  -0.4944   0.00    0.0
2023/11/29 13:45:26.000   12.614573188   77.086254086   551.4118   5  32   2.3541   2.8985   6.2929  -0.3723   1.7958  -0.4945   0.00    0.0
2023/11/29 13:45:27.000   12.614772802   77.086423719   551.3624   5  32   2.3540   2.8985   6.2928  -0.3726   1.7958  -0.4946   0.00    0.0
2023/11/29 13:45:28.000   12.614970366   77.086600395   552.6911   5  32   2.3539   2.8986   6.2927  -0.3729   1.7959  -0.4946   0.00    0.0
2023/11/29 13:45:29.000   12.615169651   77.086765367   553.1011   5  32   2.3537   2.8986   6.2926  -0.3732   1.7960  -0.4947   0.00    0.0
2023/11/29 13:45:30.000   12.615366550   77.086946368   553.4352   5  32   2.3536   2.8986   6.2925  -0.3735   1.7961  -0.4948   0.00    0.0
2023/11/29 13:45:31.000   12.615557325   77.087119552   554.7250   5  32   2.3535   2.8986   6.2924  -0.3738   1.7962  -0.4949   0.00    0.0
2023/11/29 13:45:32.000   12.615736698   77.087288770   556.0439   5  32   2.3534   2.8986   6.2923  -0.3741   1.7963  -0.4949   0.00    0.0
2023/11/29 13:45:33.000   12.615914657   77.087450340   556.0225   5  32   2.3532   2.8986   6.2922  -0.3744   1.7964  -0.4950   0.00    0.0
2023/11/29 13:45:34.000   12.616083902   77.087621943   556.7561   5  32   2.3531   2.8987   6.2921  -0.3747   1.7965  -0.4951   0.00    0.0
2023/11/29 13:45:35.000   12.616241535   77.087786102   556.3403   5  32   2.3530   2.8987   6.2920  -0.3750   1.7966  -0.4951   0.00    0.0
2023/11/29 13:45:36.000   12.616403215   77.087957012   556.4116   5  32   2.3529   2.8987   6.2919  -0.3753   1.7966  -0.4952   0.00    0.0
2023/11/29 13:45:37.000   12.616553456   77.088140049   559.6517   5  32   2.3527   2.8987   6.2918  -0.3756   1.7967  -0.4953   0.00    0.0
2023/11/29 13:45:38.000   12.616699124   77.088318522   560.5371   5  32   2.3526   2.8987   6.2916  -0.3758   1.7968  -0.4953   0.00    0.0
2023/11/29 13:45:39.000   12.616843756   77.088504921   559.8263   5  32   2.3525   2.8987   6.2915  -0.3761   1.7969  -0.4954   0.00    0.0
2023/11/29 13:45:40.000   12.616985426   77.088694897   560.4697   5  32   2.3523   2.8988   6.2914  -0.3764   1.7970  -0.4954   0.00    0.0
2023/11/29 13:45:41.000   12.617119808   77.088888238   559.7972   5  32   2.3522   2.8988   6.2913  -0.3767   1.7971  -0.4955   0.00    0.0
2023/11/29 13:45:42.000   12.617254539   77.089088089   560.0603   5  32   2.3521   2.8988   6.2912  -0.3770   1.7971  -0.4955   0.00    0.0
2023/11/29 13:45:43.000   12.617377945   77.089298267   563.1364   5  32   2.3520   2.8988   6.2911  -0.3773   1.7972  -0.4956   0.00    0.0
2023/11/29 13:45:44.000   12.617506561   77.089499131   560.6324   5  32   2.3518   2.8988   6.2910  -0.3776   1.7973  -0.4956   0.00    0.0
2023/11/29 13:45:45.000   12.617629122   77.089712791   561.1560   5  32   2.3517   2.8988   6.2909  -0.3779   1.7974  -0.4956   0.00    0.0
2023/11/29 13:45:46.000   12.617748213   77.089926072   560.9306   5  32   2.3516   2.8989   6.2908  -0.3782   1.7975  -0.4957   0.00    0.0
2023/11/29 13:45:47.000   12.617862240   77.090133764   559.6360   5  32   2.3515   2.8989   6.2907  -0.3785   1.7976  -0.4957   0.00    0.0
2023/11/29 13:45:48.000   12.617985025   77.090357152   559.3027   5  32   2.3513   2.8989   6.2906  -0.3788   1.7976  -0.4958   0.00    0.0
2023/11/29 13:45:49.000   12.618097132   77.090574705   559.2683   5  32   2.3512   2.8989   6.2905  -0.3791   1.7977  -0.4958   0.00    0.0
2023/11/29 13:45:50.000   12.618215757   77.090789684   558.5319   5  32   2.3511   2.8989   6.2904  -0.3794   1.7978  -0.4958   0.00    0.0
2023/11/29 13:45:51.000   12.618330715   77.090996099   557.2833   5  32   2.3510   2.8989   6.2902  -0.3797   1.7979  -0.4959   0.00    0.0
2023/11/29 13:45:52.000   12.618448740   77.091207172   556.9753   5  32   2.3508   2.8989   6.2901  -0.3800   1.7980  -0.4959   0.00    0.0
2023/11/29 13:45:53.000   12.618573438   77.091414222   556.3695   5  32   2.3507   2.8990   6.2900  -0.3803   1.7981  -0.4960   0.00    0.0
2023/11/29 13:45:54.000   12.618704189   77.091621304   555.1840   5  32   2.3506   2.8990   6.2899  -0.3806   1.7981  -0.4960   0.00    0.0
2023/11/29 13:45:55.000   12.618839992   77.091827987   553.9831   5  32   2.3505   2.8990   6.2898  -0.3808   1.7982  -0.4960   0.00    0.0
2023/11/29 13:45:56.000   12.618983002   77.092040337   553.4035   5  32   2.3503   2.8990   6.2897  -0.3811   1.7983  -0.4961   0.00    0.0
2023/11/29 13:45:57.000   12.619123650   77.092246184   553.3577   5  32   2.3502   2.8990   6.2896  -0.3814   1.7984  -0.4961   0.00    0.0
2023/11/29 13:45:58.000   12.619268373   77.092455380   551.6765   5  32   2.3501   2.8990   6.2895  -0.3817   1.7985  -0.4962   0.00    0.0
2023/11/29 13:45:59.000   12.619409295   77.092673920   553.7375   5  32   2.3500   2.8990   6.2894  -0.3820   1.7986  -0.4962   0.00    0.0
2023/11/29 13:46:00.000   12.619564177   77.092869287   551.3534   5  32   2.3498   2.8991   6.2893  -0.3823   1.7986  -0.4963   0.00    0.0
2023/11/29 13:46:01.000   12.619717715   77.093077792   552.3256   5  32   2.3497   2.8991   6.2892  -0.3826   1.7987  -0.4964   0.00    0.0
2023/11/29 13:46:02.000   12.619877241   77.093283225   553.0576   5  32   2.3496   2.8991   6.2890  -0.3829   1.7988  -0.4964   0.00    0.0
2023/11/29 13:46:03.000   12.620042545   77.093483923   553.2546   5  32   2.3495   2.8991   6.2889  -0.3832   1.7989  -0.4965   0.00    0.0
2023/11/29 13:46:04.000   12.620209795   77.093688510   553.4299   5  32   2.3493   2.8991   6.2888  -0.3835   1.7990  -0.4965   0.00    0.0
2023/11/29 13:46:05.000   12.620372183   77.093885884   553.6054   5  32   2.3492   2.8991   6.2887  -0.3838   1.7991  -0.4966   0.00    0.0
2023/11/29 13:46:06.000   12.620534509   77.094077596   551.9764   5  32   2.3491   2.8992   6.2886  -0.3841   1.7991  -0.4967   0.00    0.0
2023/11/29 13:46:07.000   12.620694155   77.094266080   551.4340   5  32   2.3490   2.8992   6.2885  -0.3843   1.7992  -0.4967   0.00    0.0
2023/11/29 13:46:08.000   12.620849544   77.094465693   553.1747   5  32   2.3488   2.8992   6.2884  -0.3846   1.7993  -0.4968   0.00    0.0
2023/11/29 13:46:09.000   12.621004725   77.094646611   550.9098   5  32   2.3487   2.8992   6.2883  -0.3849   1.7994  -0.4968   0.00    0.0
2023/11/29 13:46:10.000   12.621159191   77.094840772   552.2811   5  32   2.3486   2.8992   6.2882  -0.3852   1.7995  -0.4969   0.00    0.0
2023/11/29 13:46:11.000   12.621311555   77.095023286   551.6262   5  32   2.3485   2.8992   6.2881  -0.3855   1.7996  -0.4969   0.00    0.0
2023/11/29 13:46:12.000   12.621459689   77.095208365   552.2003   5  32   2.3483   2.8992   6.2880  -0.3858   1.7997  -0.4970   0.00    0.0
2023/11/29 13:46:13.000   12.621611477   77.095390212   552.1694   5  32   2.3482   2.8993   6.2878  -0.3861   1.7997  -0.4971   0.00    0.0
2023/11/29 13:46:14.000   12.621768534   77.095578604   552.2704   5  31   2.4248   2.8993   6.2964  -0.3869   1.7999  -0.6688   0.00    0.0
2023/11/29 13:46:15.000   12.621921336   77.095758474   552.7532   5  30   2.4745   2.9022   6.4501  -0.2923   1.7485  -1.0671   0.00    0.0
2023/11/29 13:46:16.000   12.622071052   77.095947720   554.3133   5  30   2.4743   2.9022   6.4500  -0.2926   1.7486  -1.0670   0.00    0.0
2023/11/29 13:46:17.000   12.622218682   77.096122095   553.8903   5  31   2.3915   2.9022   6.4365  -0.3011   1.7496  -0.9351   0.00    0.0
2023/11/29 13:46:18.000   12.622370744   77.096313537   554.4403   5  31   2.3913   2.9023   6.4364  -0.3015   1.7497  -0.9351   0.00    0.0
2023/11/29 13:46:19.000   12.622515101   77.096498634   554.6631   5  31   2.3912   2.9023   6.4363  -0.3019   1.7498  -0.9351   0.00    0.0
2023/11/29 13:46:20.000   12.622656047   77.096682191   555.6718   5  31   2.3911   2.9023   6.4362  -0.3023   1.7498  -0.9351   0.00    0.0
2023/11/29 13:46:21.000   12.622794646   77.096871928   556.2876   5  31   2.3909   2.9023   6.4361  -0.3026   1.7499  -0.9351   0.00    0.0
2023/11/29 13:46:22.000   12.622932089   77.097060219   556.0660   5  31   2.3908   2.9023   6.4360  -0.3030   1.7500  -0.9351   0.00    0.0
2023/11/29 13:46:23.000   12.623067709   77.097258057   555.6282   5  31   2.3907   2.9023   6.4359  -0.3034   1.7501  -0.9350   0.00    0.0
2023/11/29 13:46:24.000   12.623198974   77.097441008   554.3188   5  31   2.3905   2.9024   6.4357  -0.3038   1.7502  -0.9350   0.00    0.0
2023/11/29 13:46:25.000   12.623326200   77.097647629   556.3617   5  31   2.3904   2.9024   6.4356  -0.3042   1.7503  -0.9350   0.00    0.0
2023/11/29 13:46:26.000   12.623444537   77.097829311   554.1004   5  31   2.3903   2.9024   6.4355  -0.3045   1.7504  -0.9350   0.00    0.0
2023/11/29 13:46:27.000   12.623556930   77.098024920   556.2654   5  31   2.3901   2.9024   6.4354  -0.3049   1.7504  -0.9349   0.00    0.0
2023/11/29 13:46:28.000   12.623672454   77.098205970   554.1362   5  31   2.3900   2.9024   6.4353  -0.3053   1.7505  -0.9349   0.00    0.0
2023/11/29 13:46:29.000   12.623773490   77.098377923   553.6268   5  31   2.3899   2.9024   6.4352  -0.3057   1.7506  -0.9349   0.00    0.0
2023/11/29 13:46:30.000   12.623871552   77.098548137   553.9489   5  31   2.3897   2.9025   6.4351  -0.3061   1.7507  -0.9349   0.00    0.0
2023/11/29 13:46:31.000   12.623961238   77.098702138   554.5505   5  31   2.3896   2.9025   6.4350  -0.3064   1.7508  -0.9348   0.00    0.0
2023/11/29 13:46:32.000   12.624042230   77.098838296   555.1650   5  31   2.3895   2.9025   6.4349  -0.3068   1.7509  -0.9348   0.00    0.0
2023/11/29 13:46:33.000   12.624115772   77.098953170   555.4833   5  31   2.3893   2.9025   6.4348  -0.3072   1.7510  -0.9348   0.00    0.0
2023/11/29 13:46:34.000   12.624188871   77.099072363   556.4771   5  31   2.3892   2.9025   6.4347  -0.3076   1.7511  -0.9347   0.00    0.0
2023/11/29 13:46:35.000   12.624247265   77.099167322   555.6954   5  31   2.3891   2.9025   6.4346  -0.3080   1.7512  -0.9347   0.00    0.0
2023/11/29 13:46:36.000   12.624297524   77.099253056   556.0044   5  31   2.3889   2.9026   6.4345  -0.3083   1.7513  -0.9346   0.00    0.0
2023/11/29 13:46:37.000   12.624343874   77.099317720   555.3900   5  31   2.3888   2.9026   6.4344  -0.3087   1.7514  -0.9346   0.00    0.0
2023/11/29 13:46:38.000   12.624387172   77.099378439   555.4696   5  31   2.3887   2.9026   6.4343  -0.3091   1.7515  -0.9346   0.00    0.0
2023/11/29 13:46:39.000   12.624412635   77.099413374   557.1679   5  31   2.3885   2.9026   6.4342  -0.3095   1.7516  -0.9345   0.00    0.0
2023/11/29 13:46:40.000   12.624441252   77.099449510   557.0369   5  31   2.3884   2.9027   6.4341  -0.3098   1.7517  -0.9345   0.00    0.0
2023/11/29 13:46:41.000   12.624458571   77.099470400   556.1029   5  31   2.3883   2.9027   6.4340  -0.3102   1.7518  -0.9344   0.00    0.0
2023/11/29 13:46:42.000   12.624478342   77.099503948   556.8628   5  31   2.3881   2.9027   6.4339  -0.3106   1.7519  -0.9344   0.00    0.0
2023/11/29 13:46:43.000   12.624510484   77.099529043   554.7608   5  31   2.3880   2.9027   6.4338  -0.3110   1.7520  -0.9343   0.00    0.0
2023/11/29 13:46:44.000   12.624534374   77.099561800   555.0045   5  31   2.3879   2.9028   6.4337  -0.3113   1.7521  -0.9343   0.00    0.0
2023/11/29 13:46:45.000   12.624564218   77.099597755   555.8023   5  31   2.3878   2.9028   6.4336  -0.3117   1.7522  -0.9342   0.00    0.0
2023/11/29 13:46:46.000   12.624594324   77.099639557   555.6486   5  31   2.3876   2.9028   6.4335  -0.3121   1.7523  -0.9342   0.00    0.0
2023/11/29 13:46:47.000   12.624628545   77.099691271   556.2574   5  31   2.3875   2.9028   6.4334  -0.3125   1.7524  -0.9341   0.00    0.0
2023/11/29 13:46:48.000   12.624666617   77.099756233   558.0633   5  31   2.3874   2.9028   6.4333  -0.3128   1.7525  -0.9341   0.00    0.0
2023/11/29 13:46:49.000   12.624709720   77.099813965   556.4707   5  31   2.3872   2.9029   6.4332  -0.3132   1.7526  -0.9340   0.00    0.0
2023/11/29 13:46:50.000   12.624753816   77.099873860   554.8205   5  31   2.3871   2.9029   6.4331  -0.3136   1.7527  -0.9340   0.00    0.0
2023/11/29 13:46:51.000   12.624802490   77.099951723   555.4697   5  31   2.3870   2.9029   6.4330  -0.3139   1.7528  -0.9339   0.00    0.0
2023/11/29 13:46:52.000   12.624857878   77.100047410   556.2492   5  31   2.3868   2.9029   6.4329  -0.3143   1.7529  -0.9339   0.00    0.0
2023/11/29 13:46:53.000   12.624913337   77.100151901   557.0435   5  31   2.3867   2.9029   6.4328  -0.3147   1.7530  -0.9338   0.00    0.0
2023/11/29 13:46:54.000   12.624977237   77.100257619   556.5958   5  31   2.3866   2.9030   6.4327  -0.3150   1.7531  -0.9338   0.00    0.0
2023/11/29 13:46:55.000   12.625034240   77.100360423   556.7400   5  31   2.3864   2.9030   6.4326  -0.3154   1.7532  -0.9338   0.00    0.0
2023/11/29 13:46:56.000   12.625093591   77.100471636   556.8269   5  31   2.3863   2.9030   6.4325  -0.3158   1.7533  -0.9337   0.00    0.0
2023/11/29 13:46:57.000   12.625159491   77.100584523   556.8989   5  31   2.3862   2.9030   6.4324  -0.3161   1.7534  -0.9337   0.00    0.0
2023/11/29 13:46:58.000   12.625227083   77.100710660   557.7758   5  31   2.3860   2.9030   6.4322  -0.3165   1.7535  -0.9336   0.00    0.0
2023/11/29 13:46:59.000   12.625303286   77.100848522   557.9297   5  31   2.3859   2.9031   6.4321  -0.3169   1.7536  -0.9336   0.00    0.0
2023/11/29 13:47:00.000   12.625382473   77.100980217   557.5864   5  31   2.3858   2.9031   6.4320  -0.3172   1.7537  -0.9336   0.00    0.0
2023/11/29 13:47:01.000   12.625464931   77.101131079   556.8974   5  31   2.3856   2.9031   6.4319  -0.3176   1.7538  -0.9335   0.00    0.0
2023/11/29 13:47:02.000   12.625540605   77.101273615   557.3315   5  31   2.3855   2.9031   6.4318  -0.3180   1.7539  -0.9335   0.00    0.0
2023/11/29 13:47:03.000   12.625623984   77.101423244   557.8569   5  31   2.3854   2.9031   6.4317  -0.3183   1.7540  -0.9335   0.00    0.0
2023/11/29 13:47:04.000   12.625705486   77.101573421   558.2915   5  31   2.3852   2.9032   6.4316  -0.3187   1.7540  -0.9334   0.00    0.0
2023/11/29 13:47:05.000   12.625790917   77.101719958   556.1210   5  31   2.3851   2.9032   6.4315  -0.3191   1.7541  -0.9334   0.00    0.0
2023/11/29 13:47:06.000   12.625869144   77.101868921   556.5818   5  31   2.3850   2.9032   6.4314  -0.3194   1.7542  -0.9334   0.00    0.0
2023/11/29 13:47:07.000   12.625955375   77.102022610   556.4673   5  31   2.3849   2.9032   6.4313  -0.3198   1.7543  -0.9333   0.00    0.0
