% obs start : 2023/11/29 03:46:47.0 GPST (week2290 272807.0s)
% obs end   : 2023/11/29 06:31:00.0 GPST (week2290 282660.0s)
% pos mode  : Single
% elev mask : 5.0 deg
% ionos opt : Broadcast
% tropo opt : Saastamoinen
% ephemeris : Broadcast
% navi sys  : GPS Galileo QZSS BDS NavIC
%
% (lat/lon/height=WGS84/ellipsoidal,Q=1:fix,2:float,3:sbas,4:dgps,5:single,6:ppp,ns=# of satellites)
%  GPST                  latitude(deg) longitude(deg)  height(m)   Q  ns   sdn(m)   sde(m)   sdu(m)  sdne(m)  sdeu(m)  sdun(m) age(s)  ratio
2023/11/29 04:05:52.000   12.900590039   77.466788003   691.6596   5  31   2.7537   3.1108   6.4730   0.4776   2.7160  -0.7639   0.00    0.0
2023/11/29 04:05:53.000   12.900577183   77.466781293   689.1231   5  31   2.7537   3.1110   6.4732   0.4779   2.7162  -0.7639   0.00    0.0
2023/11/29 04:05:54.000   12.900549385   77.466747301   682.3093   5  31   2.7538   3.1112   6.4734   0.4781   2.7164  -0.7639   0.00    0.0
2023/11/29 04:05:55.000   12.900543740   77.466745026   685.3542   5  31   2.7538   3.1114   6.4736   0.4784   2.7167  -0.7639   0.00    0.0
2023/11/29 04:05:56.000   12.900538773   77.466733496   683.8406   5  31   2.7539   3.1117   6.4737   0.4786   2.7169  -0.7639   0.00    0.0
2023/11/29 04:05:57.000   12.900528304   77.466714666   685.5898   5  30   2.8876   3.1657   6.7006   0.8567   2.8960   0.9575   0.00    0.0
2023/11/29 04:05:58.000   12.900522775   77.466696617   684.4936   5  30   2.8876   3.1659   6.7008   0.8568   2.8962   0.9576   0.00    0.0
2023/11/29 04:05:59.000   12.900519272   77.466703951   690.4833   5  31   2.7541   3.1124   6.4743   0.4794   2.7175  -0.7639   0.00    0.0
2023/11/29 04:06:00.000   12.900521605   77.466673327   689.5020   5  31   2.7541   3.1126   6.4745   0.4796   2.7178  -0.7639   0.00    0.0
2023/11/29 04:06:01.000   12.900521844   77.466650553   692.3434   5  31   2.7542   3.1128   6.4747   0.4799   2.7180  -0.7639   0.00    0.0
2023/11/29 04:06:02.000   12.900466840   77.466607405   684.6603   5  29   3.0446   3.1761   6.7544   0.7085   2.8618   1.3152   0.00    0.0
2023/11/29 04:06:03.000   12.900402654   77.466591023   681.6383   5  28   3.0974   3.1767   6.9684   0.6882   2.8469   1.6448   0.00    0.0
2023/11/29 04:06:04.000   12.900502772   77.466550666   693.5300   5  30   2.7809   3.1146   6.6344   0.4466   2.6967  -0.1704   0.00    0.0
2023/11/29 04:06:05.000   12.900481643   77.466515073   691.2806   5  31   2.7544   3.1138   6.4754   0.4809   2.7189  -0.7639   0.00    0.0
2023/11/29 04:06:06.000   12.900457119   77.466488987   691.5721   5  31   2.7544   3.1140   6.4756   0.4811   2.7191  -0.7638   0.00    0.0
2023/11/29 04:06:07.000   12.900407083   77.466456381   689.2782   5  31   2.7545   3.1142   6.4758   0.4814   2.7193  -0.7638   0.00    0.0
2023/11/29 04:06:08.000   12.900418378   77.466407466   693.3979   5  29   2.9725   3.1254   6.6486  -0.2452   2.6783   0.6425   0.00    0.0
2023/11/29 04:06:09.000   12.900412182   77.466354935   692.1608   5  30   2.8881   3.1685   6.7033   0.8584   2.8988   0.9583   0.00    0.0
2023/11/29 04:06:10.000   12.900358689   77.466315018   685.4679   5  31   2.7547   3.1149   6.4764   0.4821   2.7200  -0.7638   0.00    0.0
2023/11/29 04:06:11.000   12.900354404   77.466287111   686.1706   5  31   2.7547   3.1151   6.4765   0.4824   2.7202  -0.7638   0.00    0.0
2023/11/29 04:06:12.000   12.900276130   77.466277580   684.6873   5  29   3.0446   3.1784   6.7572   0.7112   2.8642   1.3166   0.00    0.0
2023/11/29 04:06:13.000   12.900252988   77.466245284   685.3605   5  30   2.8883   3.1695   6.7043   0.8591   2.8998   0.9586   0.00    0.0
2023/11/29 04:06:14.000   12.900231130   77.466227638   685.3426   5  30   2.8883   3.1697   6.7045   0.8592   2.9000   0.9586   0.00    0.0
2023/11/29 04:06:15.000   12.900212927   77.466189190   682.5997   5  29   2.9265   3.1700   6.8982   0.8526   2.8934   1.2973   0.00    0.0
2023/11/29 04:06:16.000   12.900200951   77.466161330   683.9616   5  30   2.8884   3.1702   6.7050   0.8595   2.9005   0.9588   0.00    0.0
2023/11/29 04:06:17.000   12.900181715   77.466133657   682.7587   5  30   2.8884   3.1704   6.7052   0.8597   2.9007   0.9588   0.00    0.0
2023/11/29 04:06:18.000   12.900158941   77.466103265   682.2076   5  29   2.8901   3.2549   6.7419   0.8172   2.8108   0.9937   0.00    0.0
2023/11/29 04:06:19.000   12.900131288   77.466067972   682.5719   5  30   2.8885   3.1709   6.7056   0.8600   2.9012   0.9590   0.00    0.0
2023/11/29 04:06:20.000   12.900107536   77.466040118   683.4671   5  30   2.8886   3.1711   6.7059   0.8601   2.9015   0.9591   0.00    0.0
2023/11/29 04:06:21.000   12.900085115   77.465997204   683.9516   5  30   2.8886   3.1713   6.7061   0.8603   2.9017   0.9591   0.00    0.0
2023/11/29 04:06:22.000   12.900056207   77.465962804   684.1421   5  30   2.8887   3.1716   6.7063   0.8604   2.9019   0.9592   0.00    0.0
2023/11/29 04:06:23.000   12.900024762   77.465919802   682.0186   5  30   2.8887   3.1718   6.7066   0.8606   2.9022   0.9593   0.00    0.0
2023/11/29 04:06:24.000   12.900000813   77.465879537   681.8049   5  30   2.8888   3.1721   6.7068   0.8607   2.9024   0.9593   0.00    0.0
2023/11/29 04:06:25.000   12.899998636   77.465829348   683.6436   5  30   2.8888   3.1723   6.7070   0.8609   2.9026   0.9594   0.00    0.0
2023/11/29 04:06:26.000   12.899951264   77.465790786   683.3407   5  30   2.8888   3.1725   6.7073   0.8610   2.9029   0.9595   0.00    0.0
2023/11/29 04:06:27.000   12.899916800   77.465735190   682.1629   5  30   2.8889   3.1728   6.7075   0.8612   2.9031   0.9595   0.00    0.0
2023/11/29 04:06:28.000   12.899878387   77.465681741   682.9671   5  30   2.8889   3.1730   6.7077   0.8613   2.9034   0.9596   0.00    0.0
2023/11/29 04:06:29.000   12.899842260   77.465628769   682.1815   5  30   2.8890   3.1732   6.7080   0.8615   2.9036   0.9597   0.00    0.0
2023/11/29 04:06:30.000   12.899803262   77.465572612   682.8388   5  30   2.8890   3.1735   6.7082   0.8616   2.9038   0.9598   0.00    0.0
2023/11/29 04:06:31.000   12.899765313   77.465520013   683.3284   5  30   2.8891   3.1737   6.7084   0.8618   2.9041   0.9598   0.00    0.0
2023/11/29 04:06:32.000   12.899727346   77.465456837   684.1114   5  30   2.8891   3.1739   6.7086   0.8619   2.9043   0.9599   0.00    0.0
2023/11/29 04:06:33.000   12.899682408   77.465386755   684.4194   5  30   2.8891   3.1742   6.7089   0.8621   2.9045   0.9600   0.00    0.0
2023/11/29 04:06:34.000   12.899631727   77.465305882   683.7740   5  30   2.8892   3.1744   6.7091   0.8623   2.9048   0.9601   0.00    0.0
2023/11/29 04:06:35.000   12.899576040   77.465213232   683.2429   5  30   2.8892   3.1746   6.7093   0.8624   2.9050   0.9601   0.00    0.0
2023/11/29 04:06:36.000   12.899514864   77.465121345   685.1265   5  30   2.8893   3.1749   6.7096   0.8626   2.9053   0.9602   0.00    0.0
2023/11/29 04:06:37.000   12.899450407   77.465021756   684.4065   5  30   2.8893   3.1751   6.7098   0.8627   2.9055   0.9603   0.00    0.0
2023/11/29 04:06:38.000   12.899386541   77.464920256   684.2063   5  30   2.8894   3.1754   6.7100   0.8629   2.9057   0.9604   0.00    0.0
2023/11/29 04:06:39.000   12.899318666   77.464819887   684.2544   5  30   2.8894   3.1756   6.7102   0.8630   2.9060   0.9605   0.00    0.0
2023/11/29 04:06:40.000   12.899246565   77.464713975   684.4713   5  30   2.8894   3.1758   6.7105   0.8632   2.9062   0.9606   0.00    0.0
2023/11/29 04:06:41.000   12.899173219   77.464599106   683.6561   5  30   2.8895   3.1761   6.7107   0.8633   2.9065   0.9606   0.00    0.0
2023/11/29 04:06:42.000   12.899105930   77.464492037   685.4945   5  30   2.8895   3.1763   6.7109   0.8635   2.9067   0.9607   0.00    0.0
2023/11/29 04:06:43.000   12.899024360   77.464377415   684.8714   5  30   2.8896   3.1765   6.7111   0.8637   2.9069   0.9608   0.00    0.0
2023/11/29 04:06:44.000   12.898947864   77.464264037   684.7022   5  30   2.8896   3.1768   6.7114   0.8638   2.9072   0.9609   0.00    0.0
2023/11/29 04:06:45.000   12.898864734   77.464139367   682.9223   5  30   2.8897   3.1770   6.7116   0.8640   2.9074   0.9610   0.00    0.0
2023/11/29 04:06:46.000   12.898779522   77.464015058   681.8934   5  30   2.8897   3.1773   6.7118   0.8641   2.9077   0.9611   0.00    0.0
2023/11/29 04:06:47.000   12.898695346   77.463884613   681.3595   5  30   2.8897   3.1775   6.7120   0.8643   2.9079   0.9612   0.00    0.0
2023/11/29 04:06:48.000   12.898609592   77.463766503   681.8728   5  30   2.8898   3.1777   6.7123   0.8644   2.9081   0.9612   0.00    0.0
2023/11/29 04:06:49.000   12.898530386   77.463634807   681.7144   5  30   2.8898   3.1780   6.7125   0.8646   2.9084   0.9613   0.00    0.0
2023/11/29 04:06:50.000   12.898440244   77.463511672   681.7681   5  30   2.8899   3.1782   6.7127   0.8648   2.9086   0.9614   0.00    0.0
2023/11/29 04:06:51.000   12.898349191   77.463381179   682.4643   5  30   2.8899   3.1785   6.7130   0.8649   2.9088   0.9615   0.00    0.0
2023/11/29 04:06:52.000   12.898260126   77.463246981   683.1433   5  30   2.8900   3.1787   6.7132   0.8651   2.9091   0.9616   0.00    0.0
2023/11/29 04:06:53.000   12.898170983   77.463115187   682.3614   5  30   2.8900   3.1789   6.7134   0.8652   2.9093   0.9617   0.00    0.0
2023/11/29 04:06:54.000   12.898074313   77.462978461   682.8944   5  30   2.8900   3.1792   6.7136   0.8654   2.9096   0.9618   0.00    0.0
2023/11/29 04:06:55.000   12.897980933   77.462843527   683.9505   5  29   2.9869   3.1847   6.9118   0.7813   2.8574   1.4711   0.00    0.0
2023/11/29 04:06:56.000   12.897889061   77.462709235   683.6874   5  28   2.9893   3.2223   6.9892   0.7440   2.7675   1.5116   0.00    0.0
2023/11/29 04:06:57.000   12.897795196   77.462577329   683.9941   5  28   2.9893   3.2226   6.9892   0.7441   2.7678   1.5117   0.00    0.0
2023/11/29 04:06:58.000   12.897694802   77.462436359   681.9073   5  30   2.7573   3.1688   6.5303   0.4999   2.6569  -0.7681   0.00    0.0
2023/11/29 04:06:59.000   12.897619424   77.462298347   683.2747   5  31   2.7573   3.1263   6.4855   0.4945   2.7307  -0.7626   0.00    0.0
2023/11/29 04:07:00.000   12.897549801   77.462184783   689.3919   5  30   2.8856   3.1411   6.5188  -0.1100   2.6944  -0.1518   0.00    0.0
2023/11/29 04:07:01.000   12.897432921   77.462035943   685.1041   5  30   2.8856   3.1413   6.5190  -0.1083   2.6947  -0.1509   0.00    0.0
2023/11/29 04:07:02.000   12.897349089   77.461897123   685.9899   5  31   2.7575   3.1270   6.4860   0.4952   2.7314  -0.7625   0.00    0.0
2023/11/29 04:07:03.000   12.897234113   77.461770910   684.2925   5  30   2.8857   3.1418   6.5194  -0.1048   2.6951  -0.1492   0.00    0.0
2023/11/29 04:07:04.000   12.897136150   77.461662449   686.7017   5  30   2.8905   3.1815   6.7159   0.8670   2.9119   0.9627   0.00    0.0
2023/11/29 04:07:05.000   12.897030546   77.461535104   686.1162   5  30   2.8905   3.1818   6.7161   0.8671   2.9122   0.9628   0.00    0.0
2023/11/29 04:07:06.000   12.896924301   77.461420587   687.4727   5  30   2.8906   3.1820   6.7163   0.8673   2.9124   0.9629   0.00    0.0
2023/11/29 04:07:07.000   12.896794742   77.461298928   684.6351   5  31   2.7577   3.1282   6.4869   0.4965   2.7325  -0.7623   0.00    0.0
2023/11/29 04:07:08.000   12.896678399   77.461184881   684.3039   5  31   2.7578   3.1284   6.4871   0.4968   2.7327  -0.7622   0.00    0.0
2023/11/29 04:07:09.000   12.896559277   77.461074935   686.1066   5  31   2.7579   3.1287   6.4873   0.4971   2.7329  -0.7622   0.00    0.0
2023/11/29 04:07:10.000   12.896427172   77.460973154   686.3683   5  31   2.7579   3.1289   6.4875   0.4973   2.7332  -0.7621   0.00    0.0
2023/11/29 04:07:11.000   12.896300367   77.460872571   688.3997   5  31   2.7580   3.1291   6.4877   0.4976   2.7334  -0.7621   0.00    0.0
2023/11/29 04:07:12.000   12.896208221   77.460756887   690.7192   5  31   2.7580   3.1294   6.4879   0.4978   2.7336  -0.7620   0.00    0.0
2023/11/29 04:07:13.000   12.896062199   77.460655510   689.6542   5  31   2.7581   3.1296   6.4881   0.4981   2.7338  -0.7620   0.00    0.0
2023/11/29 04:07:14.000   12.895937432   77.460554454   690.9033   5  31   2.7581   3.1298   6.4883   0.4984   2.7340  -0.7619   0.00    0.0
2023/11/29 04:07:15.000   12.895774552   77.460465335   687.4138   5  31   2.7582   3.1301   6.4884   0.4986   2.7343  -0.7619   0.00    0.0
2023/11/29 04:07:16.000   12.895645575   77.460370945   688.5293   5  31   2.7582   3.1303   6.4886   0.4989   2.7345  -0.7618   0.00    0.0
2023/11/29 04:07:17.000   12.895520514   77.460267359   689.7039   5  31   2.7583   3.1305   6.4888   0.4992   2.7347  -0.7618   0.00    0.0
2023/11/29 04:07:18.000   12.895387814   77.460161745   688.1874   5  31   2.7583   3.1308   6.4890   0.4994   2.7349  -0.7617   0.00    0.0
2023/11/29 04:07:19.000   12.895252680   77.460057832   690.0924   5  31   2.7584   3.1310   6.4892   0.4997   2.7351  -0.7616   0.00    0.0
2023/11/29 04:07:20.000   12.895121469   77.459957565   690.0277   5  31   2.7584   3.1313   6.4894   0.4999   2.7353  -0.7616   0.00    0.0
2023/11/29 04:07:21.000   12.894975290   77.459847473   688.6749   5  31   2.7585   3.1315   6.4896   0.5002   2.7356  -0.7615   0.00    0.0
2023/11/29 04:07:22.000   12.894848107   77.459745812   688.7299   5  31   2.7585   3.1317   6.4898   0.5005   2.7358  -0.7615   0.00    0.0
2023/11/29 04:07:23.000   12.894712540   77.459644796   688.9182   5  31   2.7586   3.1320   6.4899   0.5007   2.7360  -0.7614   0.00    0.0
2023/11/29 04:07:24.000   12.894564583   77.459536047   690.7213   5  31   2.7586   3.1322   6.4901   0.5010   2.7362  -0.7614   0.00    0.0
2023/11/29 04:07:25.000   12.894436375   77.459439889   689.6736   5  31   2.7587   3.1324   6.4903   0.5012   2.7364  -0.7613   0.00    0.0
2023/11/29 04:07:26.000   12.894301096   77.459333192   687.9413   5  31   2.7588   3.1327   6.4905   0.5015   2.7367  -0.7613   0.00    0.0
2023/11/29 04:07:27.000   12.894155008   77.459219058   688.3643   5  31   2.7588   3.1329   6.4907   0.5018   2.7369  -0.7612   0.00    0.0
2023/11/29 04:07:28.000   12.894017004   77.459125783   688.2525   5  31   2.7589   3.1331   6.4909   0.5020   2.7371  -0.7611   0.00    0.0
2023/11/29 04:07:29.000   12.893881790   77.459005593   686.7403   5  31   2.7589   3.1334   6.4911   0.5023   2.7373  -0.7611   0.00    0.0
2023/11/29 04:07:30.000   12.893745540   77.458919085   685.4724   5  31   2.7590   3.1336   6.4913   0.5025   2.7375  -0.7610   0.00    0.0
2023/11/29 04:07:31.000   12.893622347   77.458799481   688.8271   5  31   2.7590   3.1338   6.4914   0.5028   2.7377  -0.7610   0.00    0.0
2023/11/29 04:07:32.000   12.893471895   77.458724901   688.0464   5  31   2.7591   3.1341   6.4916   0.5031   2.7380  -0.7609   0.00    0.0
2023/11/29 04:07:33.000   12.893299847   77.458570960   689.1461   5  31   2.7591   3.1343   6.4918   0.5033   2.7382  -0.7609   0.00    0.0
2023/11/29 04:07:34.000   12.893175239   77.458472270   687.5099   5  31   2.7592   3.1345   6.4920   0.5036   2.7384  -0.7608   0.00    0.0
2023/11/29 04:07:35.000   12.893044520   77.458327558   686.9031   5  31   2.7592   3.1348   6.4922   0.5039   2.7386  -0.7607   0.00    0.0
2023/11/29 04:07:36.000   12.892906656   77.458212108   683.6981   5  31   2.7593   3.1350   6.4924   0.5041   2.7388  -0.7607   0.00    0.0
2023/11/29 04:07:37.000   12.892783203   77.458096630   688.6447   5  31   2.7593   3.1352   6.4926   0.5044   2.7390  -0.7606   0.00    0.0
2023/11/29 04:07:38.000   12.892652283   77.457966382   687.0838   5  31   2.7594   3.1355   6.4928   0.5046   2.7393  -0.7606   0.00    0.0
2023/11/29 04:07:39.000   12.892529626   77.457839221   686.5730   5  30   2.8862   3.1499   6.5274   0.0498   2.7028  -0.1106   0.00    0.0
2023/11/29 04:07:40.000   12.892411870   77.457696376   684.7670   5  30   2.8862   3.1501   6.5276   0.0534   2.7030  -0.1093   0.00    0.0
2023/11/29 04:07:41.000   12.892303922   77.457545269   683.6754   5  30   2.8862   3.1503   6.5278   0.0568   2.7032  -0.1081   0.00    0.0
2023/11/29 04:07:42.000   12.892196388   77.457391328   683.6679   5  30   2.8862   3.1506   6.5280   0.0600   2.7034  -0.1069   0.00    0.0
2023/11/29 04:07:43.000   12.892079398   77.457220462   683.9851   5  29   2.9231   3.2809   6.5323   0.6536   2.6643  -0.3435   0.00    0.0
2023/11/29 04:07:44.000   12.891973542   77.457043706   684.2388   5  29   2.9231   3.2811   6.5325   0.6539   2.6645  -0.3432   0.00    0.0
2023/11/29 04:07:45.000   12.891870336   77.456860650   684.8039   5  29   2.9231   3.2814   6.5327   0.6542   2.6647  -0.3428   0.00    0.0
2023/11/29 04:07:46.000   12.891749632   77.456680615   684.8212   5  30   2.8117   3.2596   6.4964   0.8557   2.7136  -0.8178   0.00    0.0
2023/11/29 04:07:47.000   12.891625603   77.456493203   683.0629   5  30   2.8117   3.2598   6.4966   0.8559   2.7138  -0.8177   0.00    0.0
2023/11/29 04:07:48.000   12.891504467   77.456310816   685.4079   5  31   2.7599   3.1378   6.4946   0.5072   2.7415  -0.7601   0.00    0.0
2023/11/29 04:07:49.000   12.891393045   77.456123842   684.8909   5  31   2.7600   3.1381   6.4948   0.5075   2.7417  -0.7600   0.00    0.0
2023/11/29 04:07:50.000   12.891274267   77.455943635   684.2568   5  31   2.7600   3.1383   6.4950   0.5077   2.7419  -0.7600   0.00    0.0
2023/11/29 04:07:51.000   12.891159463   77.455762435   684.8812   5  31   2.7601   3.1385   6.4952   0.5080   2.7421  -0.7599   0.00    0.0
2023/11/29 04:07:52.000   12.891043406   77.455588970   685.2632   5  31   2.7601   3.1388   6.4953   0.5082   2.7423  -0.7599   0.00    0.0
2023/11/29 04:07:53.000   12.890938974   77.455407994   684.1676   5  31   2.7602   3.1390   6.4955   0.5085   2.7426  -0.7598   0.00    0.0
2023/11/29 04:07:54.000   12.890820763   77.455236319   682.7009   5  31   2.7602   3.1392   6.4957   0.5087   2.7428  -0.7598   0.00    0.0
2023/11/29 04:07:55.000   12.890696825   77.455080531   685.6139   5  31   2.7603   3.1395   6.4959   0.5090   2.7430  -0.7597   0.00    0.0
2023/11/29 04:07:56.000   12.890595574   77.454914358   685.4835   5  31   2.7603   3.1397   6.4961   0.5093   2.7432  -0.7597   0.00    0.0
2023/11/29 04:07:57.000   12.890460949   77.454758142   684.7413   5  31   2.7604   3.1399   6.4963   0.5095   2.7434  -0.7596   0.00    0.0
2023/11/29 04:07:58.000   12.890353163   77.454606523   685.6977   5  31   2.7604   3.1402   6.4964   0.5098   2.7436  -0.7596   0.00    0.0
2023/11/29 04:07:59.000   12.890249605   77.454439149   680.4423   5  31   2.7605   3.1404   6.4966   0.5100   2.7439  -0.7595   0.00    0.0
2023/11/29 04:08:00.000   12.890127237   77.454283657   680.4866   5  31   2.7605   3.1407   6.4968   0.5103   2.7441  -0.7594   0.00    0.0
2023/11/29 04:08:01.000   12.890006301   77.454138476   678.7755   5  31   2.7606   3.1409   6.4970   0.5105   2.7443  -0.7594   0.00    0.0
2023/11/29 04:08:02.000   12.889881832   77.453991956   672.7380   5  31   2.7606   3.1411   6.4972   0.5108   2.7445  -0.7593   0.00    0.0
2023/11/29 04:08:03.000   12.889783155   77.453845779   682.4132   5  30   2.8865   3.1553   6.5326   0.1070   2.7079  -0.0754   0.00    0.0
2023/11/29 04:08:04.000   12.889681672   77.453698399   685.9234   5  30   2.8126   3.2643   6.4998   0.8591   2.7175  -0.8170   0.00    0.0
2023/11/29 04:08:05.000   12.889551439   77.453519876   679.9080   5  30   2.8126   3.2646   6.5000   0.8593   2.7177  -0.8169   0.00    0.0
2023/11/29 04:08:06.000   12.889403635   77.453336070   687.4213   5  31   2.7608   3.1421   6.4979   0.5118   2.7454  -0.7591   0.00    0.0
2023/11/29 04:08:07.000   12.889308630   77.453220342   683.3139   5  30   2.8127   3.2651   6.5003   0.8597   2.7181  -0.8168   0.00    0.0
2023/11/29 04:08:08.000   12.889088842   77.453085035   678.8288   5  29   2.8944   3.2944   6.5487   0.4626   2.6307  -0.3140   0.00    0.0
2023/11/29 04:08:09.000   12.888945264   77.452897892   682.0489   5  29   2.8871   3.3205   6.8714  -0.2126   3.0872  -0.3544   0.00    0.0
2023/11/29 04:08:10.000   12.888817162   77.452794807   691.0129   5  28   3.1549   3.2304   6.5544  -0.6951   2.7125   0.7196   0.00    0.0
2023/11/29 04:08:11.000   12.888672744   77.452654845   686.1754   5  30   2.8866   3.1571   6.5343   0.1203   2.7096  -0.0582   0.00    0.0
2023/11/29 04:08:12.000   12.888560121   77.452556977   688.4355   5  29   2.8872   3.3213   6.8721  -0.2108   3.0879  -0.3543   0.00    0.0
2023/11/29 04:08:13.000   12.888393504   77.452409052   689.5636   5  27   2.9408   3.3218   7.3199  -0.2492   3.0723   0.1556   0.00    0.0
2023/11/29 04:08:14.000   12.888212210   77.452307953   686.8947   5  28   2.9240   3.3221   7.0630  -0.2557   3.0762   0.7926   0.00    0.0
2023/11/29 04:08:15.000   12.888047807   77.452174577   686.6899   5  29   2.8872   3.3220   6.8728  -0.2090   3.0887  -0.3540   0.00    0.0
2023/11/29 04:08:16.000   12.887923033   77.452072482   695.2488   5  30   2.8867   3.1582   6.5354   0.1279   2.7107  -0.0440   0.00    0.0
2023/11/29 04:08:17.000   12.887815345   77.451950642   688.2192   5  29   2.9246   3.1639   6.8496   0.3226   2.6396  -0.9819   0.00    0.0
2023/11/29 04:08:18.000   12.887609673   77.451817224   689.4862   5  29   2.8873   3.3227   6.8735  -0.2071   3.0894  -0.3538   0.00    0.0
2023/11/29 04:08:19.000   12.887471112   77.451713162   693.4518   5  30   2.8867   3.1589   6.5361   0.1323   2.7113  -0.0325   0.00    0.0
2023/11/29 04:08:20.000   12.887320622   77.451575419   693.6554   5  30   2.8867   3.1591   6.5363   0.1337   2.7115  -0.0276   0.00    0.0
2023/11/29 04:08:21.000   12.887107419   77.451475085   694.4051   5  29   2.9727   3.1594   6.5427   0.1395   2.7118   0.4472   0.00    0.0
2023/11/29 04:08:22.000   12.886989616   77.451386732   693.4589   5  30   2.8867   3.1596   6.5368   0.1365   2.7120  -0.0127   0.00    0.0
2023/11/29 04:08:23.000   12.886885751   77.451284878   696.3670   5  30   2.8867   3.1598   6.5370   0.1379   2.7122   0.0105   0.00    0.0
2023/11/29 04:08:24.000   12.886702440   77.451127749   697.5440   5  30   2.8868   3.1600   6.5372   0.1393   2.7124   0.0204   0.00    0.0
2023/11/29 04:08:25.000   12.886580978   77.451007309   693.8361   5  30   2.8868   3.1603   6.5375   0.1406   2.7126   0.0264   0.00    0.0
2023/11/29 04:08:26.000   12.886409594   77.450878627   691.0237   5  28   2.9393   3.1949   6.7441  -0.3997   2.6327   0.9494   0.00    0.0
2023/11/29 04:08:27.000   12.886256050   77.450761562   689.2098   5  30   2.8868   3.1607   6.5379   0.1433   2.7130   0.0360   0.00    0.0
2023/11/29 04:08:28.000   12.886106201   77.450655452   689.0568   5  29   2.8949   3.2987   6.5533   0.4738   2.6346  -0.3075   0.00    0.0
2023/11/29 04:08:29.000   12.885940335   77.450532401   683.7281   5  28   3.1546   3.3336   6.9087  -0.5798   3.0666   0.8523   0.00    0.0
2023/11/29 04:08:30.000   12.885772930   77.450406436   679.6520   5  30   2.8868   3.1614   6.5386   0.1472   2.7136   0.0468   0.00    0.0
2023/11/29 04:08:31.000   12.885651813   77.450291327   676.0058   5  29   2.9237   3.2931   6.5429   0.6697   2.6740  -0.3248   0.00    0.0
2023/11/29 04:08:32.000   12.885502044   77.450171613   677.0176   5  30   2.8869   3.1618   6.5390   0.1498   2.7141   0.0525   0.00    0.0
2023/11/29 04:08:33.000   12.885356582   77.450057444   678.0038   5  29   3.0445   3.2109   6.7955   0.7497   2.8979   1.3381   0.00    0.0
2023/11/29 04:08:34.000   12.885209124   77.449946815   677.8781   5  29   3.0445   3.2111   6.7958   0.7499   2.8982   1.3382   0.00    0.0
2023/11/29 04:08:35.000   12.885049996   77.449817852   678.0048   5  29   3.0445   3.2113   6.7960   0.7502   2.8984   1.3384   0.00    0.0
2023/11/29 04:08:36.000   12.884891300   77.449698435   678.3377   5  29   3.0445   3.2116   6.7963   0.7505   2.8986   1.3386   0.00    0.0
2023/11/29 04:08:37.000   12.884735459   77.449569022   678.3201   5  29   3.0445   3.2118   6.7966   0.7508   2.8989   1.3387   0.00    0.0
2023/11/29 04:08:38.000   12.884579069   77.449440185   677.5647   5  29   3.0445   3.2120   6.7969   0.7510   2.8991   1.3389   0.00    0.0
2023/11/29 04:08:39.000   12.884429796   77.449324423   677.6370   5  29   3.0445   3.2122   6.7971   0.7513   2.8994   1.3390   0.00    0.0
2023/11/29 04:08:40.000   12.884267375   77.449199525   678.3351   5  29   3.0445   3.2125   6.7974   0.7516   2.8996   1.3392   0.00    0.0
2023/11/29 04:08:41.000   12.884112782   77.449075700   677.2576   5  29   3.0445   3.2127   6.7977   0.7518   2.8998   1.3394   0.00    0.0
2023/11/29 04:08:42.000   12.883952872   77.448968751   679.7550   5  29   3.0445   3.2129   6.7980   0.7521   2.9001   1.3395   0.00    0.0
2023/11/29 04:08:43.000   12.883792703   77.448839850   677.7408   5  29   3.0445   3.2132   6.7982   0.7524   2.9003   1.3397   0.00    0.0
2023/11/29 04:08:44.000   12.883628387   77.448721992   681.0797   5  29   3.0445   3.2134   6.7985   0.7527   2.9005   1.3399   0.00    0.0
2023/11/29 04:08:45.000   12.883454866   77.448617458   681.0273   5  29   3.0445   3.2136   6.7988   0.7529   2.9008   1.3400   0.00    0.0
2023/11/29 04:08:46.000   12.883304936   77.448516475   682.1000   5  29   3.0445   3.2139   6.7991   0.7532   2.9010   1.3402   0.00    0.0
2023/11/29 04:08:47.000   12.883139353   77.448420309   681.7412   5  29   3.0445   3.2141   6.7993   0.7535   2.9012   1.3403   0.00    0.0
2023/11/29 04:08:48.000   12.882993878   77.448310438   682.8548   5  29   3.0445   3.2143   6.7996   0.7537   2.9015   1.3405   0.00    0.0
2023/11/29 04:08:49.000   12.882821352   77.448204635   681.2720   5  29   3.0445   3.2146   6.7999   0.7540   2.9017   1.3407   0.00    0.0
2023/11/29 04:08:50.000   12.882663430   77.448127447   682.2758   5  29   3.0445   3.2148   6.8002   0.7543   2.9019   1.3408   0.00    0.0
2023/11/29 04:08:51.000   12.882502628   77.448018879   683.2602   5  29   3.0445   3.2150   6.8005   0.7546   2.9022   1.3410   0.00    0.0
2023/11/29 04:08:52.000   12.882349241   77.447922530   682.1851   5  29   3.0445   3.2153   6.8007   0.7548   2.9024   1.3412   0.00    0.0
2023/11/29 04:08:53.000   12.882181089   77.447840269   685.2100   5  29   3.0445   3.2155   6.8010   0.7551   2.9026   1.3413   0.00    0.0
2023/11/29 04:08:54.000   12.882035770   77.447740160   686.8658   5  29   3.0445   3.2157   6.8013   0.7554   2.9029   1.3415   0.00    0.0
2023/11/29 04:08:55.000   12.881868534   77.447656660   686.7252   5  29   3.0445   3.2159   6.8016   0.7556   2.9031   1.3416   0.00    0.0
2023/11/29 04:08:56.000   12.881708118   77.447564442   686.6758   5  29   3.0445   3.2162   6.8018   0.7559   2.9033   1.3418   0.00    0.0
2023/11/29 04:08:57.000   12.881547679   77.447467513   684.5569   5  29   3.0445   3.2164   6.8021   0.7562   2.9036   1.3420   0.00    0.0
2023/11/29 04:08:58.000   12.881391294   77.447373924   685.8733   5  29   3.0445   3.2166   6.8024   0.7565   2.9038   1.3421   0.00    0.0
2023/11/29 04:08:59.000   12.881232992   77.447284447   685.5497   5  29   3.0445   3.2169   6.8027   0.7567   2.9040   1.3423   0.00    0.0
2023/11/29 04:09:00.000   12.881095955   77.447182707   685.0859   5  29   3.0445   3.2171   6.8030   0.7570   2.9043   1.3425   0.00    0.0
2023/11/29 04:09:01.000   12.880940354   77.447090007   684.6876   5  29   3.0445   3.2173   6.8032   0.7573   2.9045   1.3426   0.00    0.0
2023/11/29 04:09:02.000   12.880793277   77.447007440   685.2384   5  29   3.0445   3.2176   6.8035   0.7575   2.9047   1.3428   0.00    0.0
2023/11/29 04:09:03.000   12.880648293   77.446900622   686.4304   5  29   3.0445   3.2178   6.8038   0.7578   2.9050   1.3429   0.00    0.0
2023/11/29 04:09:04.000   12.880489754   77.446820054   687.1114   5  29   3.0445   3.2180   6.8041   0.7581   2.9052   1.3431   0.00    0.0
2023/11/29 04:09:05.000   12.880360164   77.446732844   687.8608   5  29   3.0445   3.2183   6.8043   0.7583   2.9054   1.3433   0.00    0.0
2023/11/29 04:09:06.000   12.880200235   77.446637421   687.2739   5  29   3.0445   3.2185   6.8046   0.7586   2.9056   1.3434   0.00    0.0
2023/11/29 04:09:07.000   12.880061935   77.446550054   690.8545   5  29   3.0445   3.2187   6.8049   0.7589   2.9059   1.3436   0.00    0.0
2023/11/29 04:09:08.000   12.879917209   77.446467572   690.2758   5  29   3.0445   3.2189   6.8052   0.7591   2.9061   1.3437   0.00    0.0
2023/11/29 04:09:09.000   12.879764629   77.446377771   688.5703   5  29   3.0445   3.2192   6.8055   0.7594   2.9063   1.3439   0.00    0.0
2023/11/29 04:09:10.000   12.879631678   77.446279295   692.3077   5  29   3.0445   3.2194   6.8057   0.7597   2.9066   1.3441   0.00    0.0
2023/11/29 04:09:11.000   12.879483799   77.446201433   693.4327   5  29   3.0445   3.2196   6.8060   0.7599   2.9068   1.3442   0.00    0.0
2023/11/29 04:09:12.000   12.879329240   77.446087400   692.7030   5  29   3.0445   3.2199   6.8063   0.7602   2.9070   1.3444   0.00    0.0
2023/11/29 04:09:13.000   12.879179935   77.446007420   693.9688   5  29   3.0445   3.2201   6.8066   0.7605   2.9073   1.3445   0.00    0.0
2023/11/29 04:09:14.000   12.879028058   77.445912759   692.2055   5  29   3.0445   3.2203   6.8069   0.7607   2.9075   1.3447   0.00    0.0
2023/11/29 04:09:15.000   12.878889150   77.445818686   692.1576   5  29   3.0445   3.2206   6.8071   0.7610   2.9077   1.3449   0.00    0.0
2023/11/29 04:09:16.000   12.878749560   77.445758769   700.0993   5  29   3.0445   3.2208   6.8074   0.7613   2.9080   1.3450   0.00    0.0
2023/11/29 04:09:17.000   12.878592550   77.445645030   694.9366   5  29   3.0445   3.2210   6.8077   0.7615   2.9082   1.3452   0.00    0.0
2023/11/29 04:09:18.000   12.878451925   77.445532482   690.6512   5  29   3.0444   3.2213   6.8080   0.7618   2.9084   1.3453   0.00    0.0
2023/11/29 04:09:19.000   12.878300540   77.445440348   690.6915   5  29   3.0444   3.2215   6.8083   0.7621   2.9087   1.3455   0.00    0.0
2023/11/29 04:09:20.000   12.878149126   77.445364415   690.9222   5  29   3.0444   3.2217   6.8085   0.7623   2.9089   1.3457   0.00    0.0
2023/11/29 04:09:21.000   12.878006780   77.445265069   691.0900   5  29   3.0444   3.2219   6.8088   0.7626   2.9091   1.3458   0.00    0.0
2023/11/29 04:09:22.000   12.877857197   77.445174905   691.3535   5  29   3.0444   3.2222   6.8091   0.7629   2.9094   1.3460   0.00    0.0
2023/11/29 04:09:23.000   12.877708015   77.445070138   689.5094   5  29   3.0444   3.2224   6.8094   0.7631   2.9096   1.3461   0.00    0.0
2023/11/29 04:09:24.000   12.877555548   77.444976796   690.6074   5  29   3.0444   3.2226   6.8096   0.7634   2.9098   1.3463   0.00    0.0
2023/11/29 04:09:25.000   12.877394505   77.444880785   689.9921   5  29   3.0444   3.2229   6.8099   0.7637   2.9100   1.3465   0.00    0.0
2023/11/29 04:09:26.000   12.877241700   77.444785819   691.1300   5  29   3.0444   3.2231   6.8102   0.7640   2.9103   1.3466   0.00    0.0
2023/11/29 04:09:27.000   12.877094533   77.444674465   689.5977   5  29   3.0444   3.2233   6.8105   0.7642   2.9105   1.3468   0.00    0.0
2023/11/29 04:09:28.000   12.876965279   77.444586379   690.7705   5  29   3.0444   3.2236   6.8108   0.7645   2.9107   1.3469   0.00    0.0
2023/11/29 04:09:29.000   12.876802622   77.444478741   690.7220   5  29   3.0444   3.2238   6.8110   0.7647   2.9110   1.3471   0.00    0.0
2023/11/29 04:09:30.000   12.876645440   77.444376791   692.8822   5  29   3.0444   3.2240   6.8113   0.7650   2.9112   1.3473   0.00    0.0
2023/11/29 04:09:31.000   12.876500123   77.444272083   692.5399   5  29   3.0444   3.2243   6.8116   0.7653   2.9114   1.3474   0.00    0.0
2023/11/29 04:09:32.000   12.876359206   77.444151267   690.0428   5  29   3.0444   3.2245   6.8119   0.7655   2.9117   1.3476   0.00    0.0
2023/11/29 04:09:33.000   12.876223894   77.444033707   690.1239   5  29   3.0444   3.2247   6.8122   0.7658   2.9119   1.3477   0.00    0.0
2023/11/29 04:09:34.000   12.876075398   77.443909809   689.0001   5  29   3.0444   3.2249   6.8124   0.7661   2.9121   1.3479   0.00    0.0
2023/11/29 04:09:35.000   12.875930934   77.443786274   687.4919   5  29   3.0444   3.2252   6.8127   0.7663   2.9124   1.3480   0.00    0.0
2023/11/29 04:09:36.000   12.875786141   77.443647065   687.8659   5  29   3.0444   3.2254   6.8130   0.7666   2.9126   1.3482   0.00    0.0
2023/11/29 04:09:37.000   12.875647926   77.443510672   685.8916   5  29   3.0444   3.2256   6.8133   0.7669   2.9128   1.3484   0.00    0.0
2023/11/29 04:09:38.000   12.875502979   77.443378286   684.0604   5  29   3.0444   3.2259   6.8135   0.7671   2.9131   1.3485   0.00    0.0
2023/11/29 04:09:39.000   12.875384686   77.443237936   687.7171   5  29   3.0444   3.2261   6.8138   0.7674   2.9133   1.3487   0.00    0.0
2023/11/29 04:09:40.000   12.875238265   77.443084433   686.2839   5  28   3.0472   3.2630   6.8840   0.7249   2.8305   1.3955   0.00    0.0
2023/11/29 04:09:41.000   12.875103517   77.442915735   685.2117   5  28   3.0472   3.2632   6.8843   0.7251   2.8307   1.3957   0.00    0.0
2023/11/29 04:09:42.000   12.874979815   77.442761910   687.1214   5  28   3.0472   3.2634   6.8846   0.7254   2.8309   1.3959   0.00    0.0
2023/11/29 04:09:43.000   12.874829174   77.442600504   685.1983   5  29   2.8881   3.2226   6.6051   0.1578   2.6481   0.2472   0.00    0.0
2023/11/29 04:09:44.000   12.874690822   77.442442745   686.0500   5  29   2.8881   3.2228   6.6053   0.1588   2.6483   0.2480   0.00    0.0
2023/11/29 04:09:45.000   12.874569365   77.442273417   685.1842   5  29   2.8882   3.2230   6.6055   0.1598   2.6485   0.2487   0.00    0.0
2023/11/29 04:09:46.000   12.874450100   77.442098584   685.8801   5  29   2.8882   3.2232   6.6057   0.1608   2.6487   0.2495   0.00    0.0
2023/11/29 04:09:47.000   12.874317331   77.441925821   685.8641   5  30   2.8878   3.1788   6.5559   0.2259   2.7297   0.1580   0.00    0.0
2023/11/29 04:09:48.000   12.874182664   77.441756555   685.6443   5  30   2.8878   3.1790   6.5562   0.2267   2.7299   0.1589   0.00    0.0
2023/11/29 04:09:49.000   12.874064027   77.441588390   685.8633   5  30   2.8878   3.1792   6.5564   0.2275   2.7301   0.1598   0.00    0.0
2023/11/29 04:09:50.000   12.873921283   77.441410895   685.3930   5  30   2.8878   3.1794   6.5566   0.2284   2.7303   0.1607   0.00    0.0
2023/11/29 04:09:51.000   12.873793010   77.441227675   682.7771   5  30   2.8879   3.1797   6.5568   0.2292   2.7305   0.1616   0.00    0.0
2023/11/29 04:09:52.000   12.873658825   77.441061263   686.2672   5  30   2.8879   3.1799   6.5571   0.2300   2.7307   0.1625   0.00    0.0
2023/11/29 04:09:53.000   12.873528366   77.440885538   685.7609   5  30   2.8879   3.1801   6.5573   0.2309   2.7309   0.1634   0.00    0.0
2023/11/29 04:09:54.000   12.873398267   77.440717335   687.1525   5  30   2.8879   3.1803   6.5575   0.2317   2.7311   0.1643   0.00    0.0
2023/11/29 04:09:55.000   12.873263911   77.440541398   686.7988   5  30   2.8879   3.1806   6.5577   0.2325   2.7313   0.1652   0.00    0.0
2023/11/29 04:09:56.000   12.873130802   77.440375324   686.8491   5  30   2.8879   3.1808   6.5580   0.2333   2.7315   0.1661   0.00    0.0
2023/11/29 04:09:57.000   12.873001404   77.440211198   688.3381   5  30   2.8879   3.1810   6.5582   0.2341   2.7317   0.1669   0.00    0.0
2023/11/29 04:09:58.000   12.872867649   77.440065068   687.2084   5  30   2.8879   3.1813   6.5584   0.2349   2.7319   0.1678   0.00    0.0
2023/11/29 04:09:59.000   12.872715421   77.439906633   689.9169   5  30   2.8879   3.1815   6.5586   0.2358   2.7322   0.1687   0.00    0.0
2023/11/29 04:10:00.000   12.872574440   77.439763958   689.4456   5  30   2.8880   3.1817   6.5589   0.2366   2.7324   0.1696   0.00    0.0
2023/11/29 04:10:01.000   12.872410960   77.439632849   690.1036   5  30   2.8880   3.1819   6.5591   0.2374   2.7326   0.1705   0.00    0.0
2023/11/29 04:10:02.000   12.872260604   77.439506410   689.5563   5  30   2.8880   3.1822   6.5593   0.2382   2.7328   0.1713   0.00    0.0
2023/11/29 04:10:03.000   12.872083356   77.439404677   689.5722   5  30   2.8880   3.1824   6.5595   0.2390   2.7330   0.1723   0.00    0.0
2023/11/29 04:10:04.000   12.871914042   77.439306126   688.1162   5  30   2.8880   3.1826   6.5598   0.2398   2.7332   0.1732   0.00    0.0
2023/11/29 04:10:05.000   12.871739879   77.439220261   689.0239   5  30   2.8880   3.1828   6.5600   0.2406   2.7334   0.1741   0.00    0.0
2023/11/29 04:10:06.000   12.871561036   77.439141324   692.8158   5  30   2.8880   3.1831   6.5602   0.2414   2.7336   0.1750   0.00    0.0
2023/11/29 04:10:07.000   12.871388798   77.439046344   687.0862   5  30   2.8880   3.1833   6.5605   0.2422   2.7338   0.1758   0.00    0.0
2023/11/29 04:10:08.000   12.871213977   77.438973713   689.4201   5  30   2.8881   3.1835   6.5607   0.2430   2.7340   0.1767   0.00    0.0
2023/11/29 04:10:09.000   12.871037897   77.438899255   689.1451   5  30   2.8881   3.1837   6.5609   0.2438   2.7342   0.1776   0.00    0.0
2023/11/29 04:10:10.000   12.870866720   77.438820745   690.4301   5  30   2.8881   3.1840   6.5612   0.2446   2.7344   0.1785   0.00    0.0
2023/11/29 04:10:11.000   12.870681325   77.438786719   699.5587   5  30   2.8881   3.1842   6.5614   0.2454   2.7346   0.1794   0.00    0.0
2023/11/29 04:10:12.000   12.870510115   77.438669938   691.8672   5  30   2.8881   3.1844   6.5616   0.2462   2.7348   0.1803   0.00    0.0
2023/11/29 04:10:13.000   12.870318186   77.438587299   689.2637   5  30   2.8881   3.1846   6.5618   0.2470   2.7350   0.1811   0.00    0.0
2023/11/29 04:10:14.000   12.870144061   77.438518667   688.9715   5  30   2.8881   3.1849   6.5621   0.2477   2.7352   0.1820   0.00    0.0
2023/11/29 04:10:15.000   12.869965037   77.438437220   688.8394   5  30   2.8881   3.1851   6.5623   0.2485   2.7354   0.1829   0.00    0.0
2023/11/29 04:10:16.000   12.869789952   77.438357803   687.2576   5  30   2.8882   3.1853   6.5625   0.2493   2.7356   0.1837   0.00    0.0
2023/11/29 04:10:17.000   12.869601702   77.438276352   688.6303   5  30   2.8882   3.1855   6.5628   0.2501   2.7358   0.1846   0.00    0.0
2023/11/29 04:10:18.000   12.869417960   77.438203175   691.7763   5  30   2.8882   3.1858   6.5630   0.2508   2.7360   0.1855   0.00    0.0
2023/11/29 04:10:19.000   12.869227801   77.438128292   691.6364   5  30   2.8882   3.1860   6.5632   0.2516   2.7362   0.1863   0.00    0.0
2023/11/29 04:10:20.000   12.869046477   77.438047738   691.6689   5  30   2.8882   3.1862   6.5635   0.2524   2.7364   0.1872   0.00    0.0
2023/11/29 04:10:21.000   12.868855913   77.437966317   690.2301   5  30   2.8882   3.1864   6.5637   0.2532   2.7366   0.1880   0.00    0.0
2023/11/29 04:10:22.000   12.868675428   77.437889522   690.4571   5  30   2.8882   3.1867   6.5639   0.2539   2.7368   0.1889   0.00    0.0
2023/11/29 04:10:23.000   12.868488332   77.437802136   691.0591   5  30   2.8882   3.1869   6.5642   0.2547   2.7370   0.1897   0.00    0.0
2023/11/29 04:10:24.000   12.868300027   77.437734438   690.4963   5  30   2.8883   3.1871   6.5644   0.2555   2.7372   0.1906   0.00    0.0
2023/11/29 04:10:25.000   12.868114306   77.437642658   689.6132   5  30   2.8883   3.1873   6.5646   0.2562   2.7374   0.1914   0.00    0.0
2023/11/29 04:10:26.000   12.867908235   77.437567522   688.9218   5  30   2.8883   3.1876   6.5649   0.2570   2.7376   0.1922   0.00    0.0
2023/11/29 04:10:27.000   12.867724855   77.437477373   689.8032   5  30   2.8883   3.1878   6.5651   0.2577   2.7378   0.1931   0.00    0.0
2023/11/29 04:10:28.000   12.867536238   77.437389633   689.4006   5  30   2.8883   3.1880   6.5653   0.2585   2.7381   0.1939   0.00    0.0
2023/11/29 04:10:29.000   12.867343606   77.437296021   688.8236   5  30   2.8883   3.1883   6.5656   0.2592   2.7383   0.1947   0.00    0.0
2023/11/29 04:10:30.000   12.867162592   77.437192216   688.0735   5  30   2.8883   3.1885   6.5658   0.2600   2.7385   0.1956   0.00    0.0
2023/11/29 04:10:31.000   12.866971753   77.437092468   687.8116   5  30   2.8883   3.1887   6.5660   0.2607   2.7387   0.1964   0.00    0.0
2023/11/29 04:10:32.000   12.866796784   77.436967270   687.6461   5  30   2.8884   3.1889   6.5662   0.2615   2.7389   0.1972   0.00    0.0
2023/11/29 04:10:33.000   12.866622824   77.436840247   686.7285   5  30   2.8884   3.1892   6.5665   0.2622   2.7391   0.1980   0.00    0.0
2023/11/29 04:10:34.000   12.866443851   77.436706479   686.7147   5  30   2.8884   3.1894   6.5667   0.2630   2.7393   0.1988   0.00    0.0
2023/11/29 04:10:35.000   12.866280710   77.436571015   685.6696   5  30   2.8884   3.1896   6.5669   0.2637   2.7395   0.1995   0.00    0.0
2023/11/29 04:10:36.000   12.866107248   77.436430700   684.7564   5  29   2.8894   3.3028   6.9983   0.0793   2.3313   0.4689   0.00    0.0
2023/11/29 04:10:37.000   12.865939282   77.436292269   685.6208   5  29   2.8894   3.3030   6.9985   0.0802   2.3315   0.4699   0.00    0.0
2023/11/29 04:10:38.000   12.865782633   77.436149639   685.7467   5  29   2.8894   3.3032   6.9988   0.0810   2.3317   0.4710   0.00    0.0
2023/11/29 04:10:39.000   12.865613937   77.435977095   677.7922   5  30   2.8884   3.1905   6.5678   0.2666   2.7403   0.2026   0.00    0.0
2023/11/29 04:10:40.000   12.865446975   77.435871735   684.7109   5  30   2.8884   3.1907   6.5681   0.2673   2.7405   0.2034   0.00    0.0
2023/11/29 04:10:41.000   12.865295198   77.435736841   685.4275   5  30   2.8885   3.1910   6.5683   0.2680   2.7407   0.2041   0.00    0.0
2023/11/29 04:10:42.000   12.865142446   77.435607381   684.5744   5  30   2.8885   3.1912   6.5685   0.2688   2.7409   0.2049   0.00    0.0
2023/11/29 04:10:43.000   12.864992553   77.435476265   683.7406   5  30   2.8885   3.1914   6.5688   0.2695   2.7411   0.2056   0.00    0.0
2023/11/29 04:10:44.000   12.864840412   77.435351133   685.6068   5  30   2.8885   3.1916   6.5690   0.2702   2.7413   0.2064   0.00    0.0
2023/11/29 04:10:45.000   12.864694082   77.435228655   685.2079   5  29   2.9931   3.2057   6.7136  -0.4002   2.6652   1.0625   0.00    0.0
2023/11/29 04:10:46.000   12.864544904   77.435113285   686.4622   5  28   3.1814   3.2493   7.0302   0.6406   2.8649   1.8378   0.00    0.0
2023/11/29 04:10:47.000   12.864403105   77.434996336   686.7972   5  29   3.0443   3.2418   6.8328   0.7853   2.9288   1.3597   0.00    0.0
2023/11/29 04:10:48.000   12.864262556   77.434879092   687.1828   5  29   3.0443   3.2421   6.8331   0.7856   2.9291   1.3598   0.00    0.0
2023/11/29 04:10:49.000   12.864122593   77.434768124   688.0473   5  29   3.0443   3.2423   6.8334   0.7858   2.9293   1.3600   0.00    0.0
2023/11/29 04:10:50.000   12.863984743   77.434663422   686.7692   5  29   3.0443   3.2425   6.8336   0.7861   2.9295   1.3601   0.00    0.0
2023/11/29 04:10:51.000   12.863853874   77.434548002   686.7033   5  29   3.0443   3.2428   6.8339   0.7864   2.9297   1.3603   0.00    0.0
2023/11/29 04:10:52.000   12.863719059   77.434445724   686.7494   5  29   3.0443   3.2430   6.8342   0.7866   2.9300   1.3604   0.00    0.0
2023/11/29 04:10:53.000   12.863589856   77.434334757   684.8141   5  29   3.0443   3.2432   6.8345   0.7869   2.9302   1.3606   0.00    0.0
2023/11/29 04:10:54.000   12.863460075   77.434248092   687.7823   5  29   3.0443   3.2435   6.8348   0.7871   2.9304   1.3607   0.00    0.0
2023/11/29 04:10:55.000   12.863332597   77.434134979   687.3027   5  29   3.0443   3.2437   6.8350   0.7874   2.9306   1.3609   0.00    0.0
2023/11/29 04:10:56.000   12.863200874   77.434041037   687.8181   5  29   3.0443   3.2439   6.8353   0.7876   2.9309   1.3610   0.00    0.0
2023/11/29 04:10:57.000   12.863068486   77.433938583   687.4734   5  29   3.0443   3.2441   6.8356   0.7879   2.9311   1.3612   0.00    0.0
2023/11/29 04:10:58.000   12.862951130   77.433837279   689.2491   5  29   3.0443   3.2444   6.8359   0.7882   2.9313   1.3614   0.00    0.0
2023/11/29 04:10:59.000   12.862822609   77.433727177   688.3791   5  29   3.0443   3.2446   6.8362   0.7884   2.9315   1.3615   0.00    0.0
2023/11/29 04:11:00.000   12.862699673   77.433626188   689.0372   5  29   3.0442   3.2448   6.8364   0.7887   2.9318   1.3617   0.00    0.0
2023/11/29 04:11:01.000   12.862568366   77.433518404   687.7444   5  30   2.9002   3.2380   6.7709   0.9058   2.9663   0.9893   0.00    0.0
2023/11/29 04:11:02.000   12.862441015   77.433416425   688.0241   5  30   2.9002   3.2382   6.7712   0.9060   2.9665   0.9894   0.00    0.0
2023/11/29 04:11:03.000   12.862314392   77.433318635   688.6434   5  30   2.9002   3.2385   6.7714   0.9061   2.9668   0.9896   0.00    0.0
2023/11/29 04:11:04.000   12.862191606   77.433217081   688.5193   5  30   2.9003   3.2387   6.7716   0.9063   2.9670   0.9897   0.00    0.0
2023/11/29 04:11:05.000   12.862072829   77.433116842   688.5784   5  30   2.9003   3.2390   6.7719   0.9064   2.9672   0.9898   0.00    0.0
2023/11/29 04:11:06.000   12.861940884   77.433015042   688.4684   5  30   2.9004   3.2392   6.7721   0.9066   2.9674   0.9899   0.00    0.0
2023/11/29 04:11:07.000   12.861824433   77.432930263   688.8024   5  30   2.9004   3.2394   6.7723   0.9068   2.9676   0.9900   0.00    0.0
2023/11/29 04:11:08.000   12.861721931   77.432843538   688.5993   5  30   2.9004   3.2397   6.7726   0.9069   2.9679   0.9901   0.00    0.0
2023/11/29 04:11:09.000   12.861625754   77.432768568   689.2890   5  30   2.9005   3.2399   6.7728   0.9071   2.9681   0.9902   0.00    0.0
2023/11/29 04:11:10.000   12.861535373   77.432697357   687.8869   5  30   2.9005   3.2401   6.7731   0.9072   2.9683   0.9903   0.00    0.0
2023/11/29 04:11:11.000   12.861442625   77.432640391   687.8070   5  30   2.9005   3.2404   6.7733   0.9074   2.9685   0.9904   0.00    0.0
2023/11/29 04:11:12.000   12.861372526   77.432586215   686.5229   5  29   2.9409   3.2406   6.9794   0.9113   2.9727   1.3407   0.00    0.0
2023/11/29 04:11:13.000   12.861286560   77.432530605   685.0212   5  30   2.9006   3.2408   6.7738   0.9077   2.9689   0.9906   0.00    0.0
2023/11/29 04:11:14.000   12.861208331   77.432489965   686.3435   5  30   2.9007   3.2411   6.7740   0.9079   2.9692   0.9907   0.00    0.0
2023/11/29 04:11:15.000   12.861127716   77.432439368   687.6420   5  30   2.9007   3.2413   6.7743   0.9080   2.9694   0.9908   0.00    0.0
2023/11/29 04:11:16.000   12.861057070   77.432394504   686.6828   5  30   2.9007   3.2415   6.7745   0.9082   2.9696   0.9909   0.00    0.0
2023/11/29 04:11:17.000   12.860979293   77.432354371   687.4088   5  30   2.9008   3.2418   6.7747   0.9083   2.9698   0.9910   0.00    0.0
2023/11/29 04:11:18.000   12.860904793   77.432310669   687.6342   5  30   2.9008   3.2420   6.7750   0.9085   2.9700   0.9911   0.00    0.0
2023/11/29 04:11:19.000   12.860843807   77.432262673   688.3644   5  30   2.9009   3.2422   6.7752   0.9086   2.9702   0.9912   0.00    0.0
2023/11/29 04:11:20.000   12.860776633   77.432217747   687.1717   5  30   2.9009   3.2425   6.7755   0.9088   2.9705   0.9913   0.00    0.0
2023/11/29 04:11:21.000   12.860720451   77.432187253   687.1276   5  30   2.9009   3.2427   6.7757   0.9089   2.9707   0.9914   0.00    0.0
2023/11/29 04:11:22.000   12.860667157   77.432159193   685.1279   5  29   2.9022   3.2773   6.8399   0.8866   2.8957   1.0310   0.00    0.0
2023/11/29 04:11:23.000   12.860614884   77.432135165   684.9485   5  29   2.9023   3.2775   6.8401   0.8867   2.8959   1.0311   0.00    0.0
2023/11/29 04:11:24.000   12.860583772   77.432120448   686.7044   5  29   2.9023   3.2777   6.8404   0.8868   2.8961   1.0313   0.00    0.0
2023/11/29 04:11:25.000   12.860542545   77.432100904   687.0074   5  29   2.9024   3.2780   6.8406   0.8869   2.8963   1.0314   0.00    0.0
2023/11/29 04:11:26.000   12.860505079   77.432083524   686.2986   5  30   2.9011   3.2439   6.7769   0.9097   2.9718   0.9919   0.00    0.0
2023/11/29 04:11:27.000   12.860481217   77.432064130   685.9471   5  30   2.9012   3.2441   6.7771   0.9098   2.9720   0.9920   0.00    0.0
2023/11/29 04:11:28.000   12.860458054   77.432044067   686.2355   5  30   2.9012   3.2444   6.7774   0.9100   2.9722   0.9921   0.00    0.0
2023/11/29 04:11:29.000   12.860465584   77.432039239   687.0501   5  30   2.9012   3.2446   6.7776   0.9101   2.9724   0.9922   0.00    0.0
2023/11/29 04:11:30.000   12.860461599   77.432044204   687.5165   5  30   2.9013   3.2448   6.7779   0.9103   2.9726   0.9922   0.00    0.0
2023/11/29 04:11:31.000   12.860452263   77.432042528   686.6845   5  30   2.9013   3.2450   6.7781   0.9104   2.9728   0.9923   0.00    0.0
2023/11/29 04:11:32.000   12.860457273   77.432045078   687.0287   5  30   2.9014   3.2453   6.7784   0.9106   2.9730   0.9924   0.00    0.0
2023/11/29 04:11:33.000   12.860458192   77.432041015   687.3468   5  30   2.9014   3.2455   6.7786   0.9107   2.9733   0.9925   0.00    0.0
2023/11/29 04:11:34.000   12.860458074   77.432050219   687.8741   5  30   2.9014   3.2457   6.7788   0.9109   2.9735   0.9926   0.00    0.0
2023/11/29 04:11:35.000   12.860459715   77.432043502   686.8477   5  30   2.9015   3.2460   6.7791   0.9110   2.9737   0.9927   0.00    0.0
2023/11/29 04:11:36.000   12.860457434   77.432042145   686.9505   5  30   2.9015   3.2462   6.7793   0.9112   2.9739   0.9927   0.00    0.0
2023/11/29 04:11:37.000   12.860460222   77.432046320   687.7113   5  30   2.9015   3.2464   6.7796   0.9113   2.9741   0.9928   0.00    0.0
2023/11/29 04:11:38.000   12.860456797   77.432043250   686.4820   5  30   2.9016   3.2467   6.7798   0.9115   2.9743   0.9929   0.00    0.0
2023/11/29 04:11:39.000   12.860458748   77.432043110   687.2386   5  30   2.9016   3.2469   6.7801   0.9116   2.9745   0.9930   0.00    0.0
2023/11/29 04:11:40.000   12.860466191   77.432049481   687.9740   5  30   2.9017   3.2471   6.7803   0.9118   2.9747   0.9931   0.00    0.0
2023/11/29 04:11:41.000   12.860459673   77.432043040   686.8545   5  30   2.9017   3.2474   6.7805   0.9119   2.9750   0.9931   0.00    0.0
2023/11/29 04:11:42.000   12.860459335   77.432045322   686.9145   5  30   2.9017   3.2476   6.7808   0.9121   2.9752   0.9932   0.00    0.0
2023/11/29 04:11:43.000   12.860461325   77.432038501   685.6803   5  30   2.9018   3.2478   6.7810   0.9122   2.9754   0.9933   0.00    0.0
2023/11/29 04:11:44.000   12.860457378   77.432041858   686.5623   5  30   2.9018   3.2481   6.7813   0.9124   2.9756   0.9934   0.00    0.0
2023/11/29 04:11:45.000   12.860457225   77.432045094   685.5598   5  30   2.9019   3.2483   6.7815   0.9125   2.9758   0.9935   0.00    0.0
2023/11/29 04:11:46.000   12.860467656   77.432048142   686.7986   5  30   2.9019   3.2485   6.7818   0.9127   2.9760   0.9936   0.00    0.0
2023/11/29 04:11:47.000   12.860460871   77.432043597   686.7816   5  30   2.9019   3.2488   6.7820   0.9128   2.9762   0.9936   0.00    0.0