% obs start : 2023/11/29 09:13:55.0 GPST (week2290 292435.0s)
% obs end   : 2023/11/29 10:01:48.0 GPST (week2290 295308.0s)
% pos mode  : Single
% elev mask : 5.0 deg
% ionos opt : Broadcast
% tropo opt : Saastamoinen
% ephemeris : Broadcast
% navi sys  : GPS Galileo QZSS BDS NavIC
%
% (lat/lon/height=WGS84/ellipsoidal,Q=1:fix,2:float,3:sbas,4:dgps,5:single,6:ppp,ns=# of satellites)
%  GPST                  latitude(deg) longitude(deg)  height(m)   Q  ns   sdn(m)   sde(m)   sdu(m)  sdne(m)  sdeu(m)  sdun(m) age(s)  ratio
2023/11/29 09:37:00.000   12.782368867   77.370789401   654.0925   5  31   3.5461   3.2759   6.7743   1.3779   1.4353  -1.4448   0.00    0.0
2023/11/29 09:37:01.000   12.782272102   77.370710538   653.6785   5  31   3.5461   3.2759   6.7743   1.3778   1.4357  -1.4444   0.00    0.0
2023/11/29 09:37:02.000   12.782180117   77.370632882   653.4091   5  31   3.5461   3.2759   6.7743   1.3778   1.4361  -1.4441   0.00    0.0
2023/11/29 09:37:03.000   12.782083831   77.370541449   651.9892   5  31   3.5460   3.2759   6.7743   1.3778   1.4365  -1.4438   0.00    0.0
2023/11/29 09:37:04.000   12.781975335   77.370448777   653.6572   5  31   3.5460   3.2758   6.7743   1.3777   1.4370  -1.4434   0.00    0.0
2023/11/29 09:37:05.000   12.781860238   77.370354021   652.3854   5  31   3.5460   3.2758   6.7743   1.3777   1.4374  -1.4431   0.00    0.0
2023/11/29 09:37:06.000   12.781740435   77.370258553   653.0067   5  31   3.5460   3.2758   6.7743   1.3777   1.4378  -1.4427   0.00    0.0
2023/11/29 09:37:07.000   12.781617882   77.370157551   652.0389   5  31   3.5460   3.2758   6.7743   1.3776   1.4382  -1.4424   0.00    0.0
2023/11/29 09:37:08.000   12.781512916   77.370059312   653.3579   5  31   3.5460   3.2758   6.7743   1.3776   1.4387  -1.4420   0.00    0.0
2023/11/29 09:37:09.000   12.781389842   77.369953508   652.8484   5  31   3.5460   3.2758   6.7744   1.3776   1.4391  -1.4417   0.00    0.0
2023/11/29 09:37:10.000   12.781258949   77.369841002   653.0996   5  31   3.5460   3.2757   6.7744   1.3776   1.4395  -1.4413   0.00    0.0
2023/11/29 09:37:11.000   12.781129222   77.369710418   649.3097   5  31   3.5459   3.2757   6.7744   1.3775   1.4400  -1.4410   0.00    0.0
2023/11/29 09:37:12.000   12.780991048   77.369578826   652.5798   5  31   3.5459   3.2757   6.7744   1.3775   1.4404  -1.4406   0.00    0.0
2023/11/29 09:37:13.000   12.780852143   77.369438402   651.6309   5  31   3.5459   3.2757   6.7744   1.3775   1.4408  -1.4403   0.00    0.0
2023/11/29 09:37:14.000   12.780714168   77.369289454   651.6787   5  31   3.5459   3.2757   6.7744   1.3774   1.4413  -1.4399   0.00    0.0
2023/11/29 09:37:15.000   12.780581810   77.369129696   652.1382   5  31   3.5459   3.2757   6.7744   1.3774   1.4417  -1.4396   0.00    0.0
2023/11/29 09:37:16.000   12.780453969   77.368960612   651.2165   5  31   3.5459   3.2756   6.7744   1.3774   1.4421  -1.4393   0.00    0.0
2023/11/29 09:37:17.000   12.780321796   77.368793627   650.2438   5  31   3.5459   3.2756   6.7744   1.3774   1.4426  -1.4389   0.00    0.0
2023/11/29 09:37:18.000   12.780200390   77.368624075   651.4075   5  31   3.5459   3.2756   6.7744   1.3773   1.4430  -1.4386   0.00    0.0
2023/11/29 09:37:19.000   12.780078647   77.368446458   651.1098   5  31   3.5458   3.2756   6.7744   1.3773   1.4434  -1.4382   0.00    0.0
2023/11/29 09:37:20.000   12.779968031   77.368266449   652.1153   5  32   3.4520   3.2739   6.6197   1.3463   1.3911  -1.7982   0.00    0.0
2023/11/29 09:37:21.000   12.779850552   77.368070345   650.6810   5  32   3.4520   3.2739   6.6197   1.3463   1.3915  -1.7979   0.00    0.0
2023/11/29 09:37:22.000   12.779745595   77.367878475   650.7546   5  32   3.4520   3.2739   6.6197   1.3463   1.3920  -1.7977   0.00    0.0
2023/11/29 09:37:23.000   12.779640596   77.367683626   650.4579   5  32   3.4520   3.2739   6.6197   1.3463   1.3925  -1.7974   0.00    0.0
2023/11/29 09:37:24.000   12.779568783   77.367493405   655.2220   5  32   3.4520   3.2739   6.6197   1.3462   1.3929  -1.7972   0.00    0.0
2023/11/29 09:37:25.000   12.779456062   77.367313183   651.6578   5  32   3.4520   3.2738   6.6197   1.3462   1.3934  -1.7969   0.00    0.0
2023/11/29 09:37:26.000   12.779370675   77.367150335   651.6960   5  32   3.4519   3.2738   6.6197   1.3462   1.3939  -1.7966   0.00    0.0
2023/11/29 09:37:27.000   12.779280421   77.366998238   649.1671   5  32   3.4519   3.2738   6.6197   1.3462   1.3943  -1.7964   0.00    0.0
2023/11/29 09:37:28.000   12.779214480   77.366849116   650.4688   5  32   3.4519   3.2738   6.6197   1.3461   1.3948  -1.7961   0.00    0.0
2023/11/29 09:37:29.000   12.779152109   77.366702749   648.6660   5  32   3.4519   3.2738   6.6198   1.3461   1.3953  -1.7958   0.00    0.0
2023/11/29 09:37:30.000   12.779087741   77.366571772   648.4019   5  32   3.4518   3.2738   6.6198   1.3461   1.3957  -1.7956   0.00    0.0
2023/11/29 09:37:31.000   12.779020222   77.366436619   648.0782   5  32   3.4518   3.2737   6.6198   1.3461   1.3962  -1.7953   0.00    0.0
2023/11/29 09:37:32.000   12.778955700   77.366305686   645.9920   5  32   3.4518   3.2737   6.6198   1.3460   1.3967  -1.7951   0.00    0.0
2023/11/29 09:37:33.000   12.778868780   77.366174158   651.2421   5  31   3.4768   3.3719   6.8766   1.2148   1.8590  -1.9989   0.00    0.0
2023/11/29 09:37:34.000   12.778777228   77.366024230   652.4583   5  31   3.4768   3.3719   6.8766   1.2148   1.8593  -1.9987   0.00    0.0
2023/11/29 09:37:35.000   12.778698053   77.365860646   651.8530   5  31   3.4767   3.3719   6.8766   1.2147   1.8597  -1.9985   0.00    0.0
2023/11/29 09:37:36.000   12.778608373   77.365694132   653.9492   5  32   3.4517   3.2737   6.6198   1.3460   1.3985  -1.7940   0.00    0.0
2023/11/29 09:37:37.000   12.778519390   77.365514459   652.5938   5  32   3.4517   3.2737   6.6198   1.3459   1.3990  -1.7937   0.00    0.0
2023/11/29 09:37:38.000   12.778420107   77.365328930   651.2289   5  32   3.4517   3.2736   6.6198   1.3459   1.3995  -1.7935   0.00    0.0
2023/11/29 09:37:39.000   12.778305226   77.365140131   652.5057   5  32   3.4517   3.2736   6.6198   1.3459   1.3999  -1.7932   0.00    0.0
2023/11/29 09:37:40.000   12.778187158   77.364949682   653.0093   5  32   3.4516   3.2736   6.6198   1.3459   1.4004  -1.7929   0.00    0.0
2023/11/29 09:37:41.000   12.778070832   77.364759688   655.0512   5  32   3.4516   3.2736   6.6198   1.3458   1.4009  -1.7927   0.00    0.0
2023/11/29 09:37:42.000   12.777967757   77.364561346   653.0750   5  32   3.4516   3.2736   6.6198   1.3458   1.4013  -1.7924   0.00    0.0
2023/11/29 09:37:43.000   12.777868051   77.364367065   655.2386   5  32   3.4516   3.2736   6.6198   1.3458   1.4018  -1.7921   0.00    0.0
2023/11/29 09:37:44.000   12.777766670   77.364165205   654.4219   5  32   3.4516   3.2735   6.6199   1.3458   1.4023  -1.7919   0.00    0.0
2023/11/29 09:37:45.000   12.777662004   77.363961585   654.9379   5  32   3.4515   3.2735   6.6199   1.3457   1.4027  -1.7916   0.00    0.0
2023/11/29 09:37:46.000   12.777559767   77.363763732   657.5232   5  31   3.4766   3.3718   6.8769   1.2141   1.8639  -1.9963   0.00    0.0
2023/11/29 09:37:47.000   12.777459980   77.363571971   656.9561   5  31   3.4766   3.3718   6.8769   1.2141   1.8643  -1.9961   0.00    0.0
2023/11/29 09:37:48.000   12.777383296   77.363383935   662.3333   5  31   3.4766   3.3718   6.8769   1.2140   1.8646  -1.9959   0.00    0.0
2023/11/29 09:37:49.000   12.777266807   77.363225972   659.2818   5  31   3.4766   3.3717   6.8770   1.2140   1.8650  -1.9957   0.00    0.0
2023/11/29 09:37:50.000   12.777181135   77.363065515   660.1331   5  32   3.4387   3.3371   6.7220   1.1077   2.0444  -1.7997   0.00    0.0
2023/11/29 09:37:51.000   12.777094771   77.362908920   660.1311   5  32   3.4387   3.3371   6.7220   1.1077   2.0447  -1.7995   0.00    0.0
2023/11/29 09:37:52.000   12.777000493   77.362743654   659.5630   5  32   3.4386   3.3371   6.7221   1.1076   2.0450  -1.7993   0.00    0.0
2023/11/29 09:37:53.000   12.776913722   77.362570492   659.8168   5  32   3.4386   3.3371   6.7221   1.1076   2.0453  -1.7990   0.00    0.0
2023/11/29 09:37:54.000   12.776827202   77.362405067   657.8031   5  32   3.4386   3.3371   6.7221   1.1075   2.0456  -1.7988   0.00    0.0
2023/11/29 09:37:55.000   12.776752595   77.362245172   662.1119   5  32   3.4386   3.3371   6.7221   1.1075   2.0459  -1.7985   0.00    0.0
2023/11/29 09:37:56.000   12.776679845   77.362068558   660.8178   5  32   3.4386   3.3371   6.7222   1.1075   2.0462  -1.7983   0.00    0.0
2023/11/29 09:37:57.000   12.776595512   77.361899826   663.1742   5  32   3.4385   3.3372   6.7222   1.1074   2.0465  -1.7981   0.00    0.0
2023/11/29 09:37:58.000   12.776512185   77.361716535   663.1295   5  32   3.4385   3.3372   6.7222   1.1074   2.0468  -1.7978   0.00    0.0
2023/11/29 09:37:59.000   12.776426625   77.361538055   662.3741   5  32   3.4385   3.3372   6.7223   1.1073   2.0471  -1.7976   0.00    0.0
2023/11/29 09:38:00.000   12.776346296   77.361364607   660.6831   5  32   3.4385   3.3372   6.7223   1.1073   2.0474  -1.7973   0.00    0.0
2023/11/29 09:38:01.000   12.776269886   77.361196199   661.9162   5  32   3.4385   3.3372   6.7223   1.1073   2.0477  -1.7971   0.00    0.0
2023/11/29 09:38:02.000   12.776181503   77.361032581   660.9198   5  32   3.4384   3.3372   6.7223   1.1072   2.0480  -1.7969   0.00    0.0
2023/11/29 09:38:03.000   12.776106157   77.360856346   661.9572   5  32   3.4384   3.3372   6.7224   1.1072   2.0483  -1.7966   0.00    0.0
2023/11/29 09:38:04.000   12.776018381   77.360684412   662.0640   5  32   3.4384   3.3372   6.7224   1.1071   2.0486  -1.7964   0.00    0.0
2023/11/29 09:38:05.000   12.775946846   77.360506094   662.9355   5  32   3.4384   3.3372   6.7224   1.1071   2.0489  -1.7961   0.00    0.0
2023/11/29 09:38:06.000   12.775858432   77.360318390   663.3885   5  32   3.4384   3.3372   6.7225   1.1071   2.0493  -1.7959   0.00    0.0
2023/11/29 09:38:07.000   12.775771783   77.360136261   663.8210   5  32   3.4383   3.3372   6.7225   1.1070   2.0496  -1.7957   0.00    0.0
2023/11/29 09:38:08.000   12.775679454   77.359950720   663.8885   5  32   3.4383   3.3372   6.7225   1.1070   2.0499  -1.7954   0.00    0.0
2023/11/29 09:38:09.000   12.775590665   77.359766138   663.3509   5  32   3.4383   3.3372   6.7225   1.1069   2.0502  -1.7952   0.00    0.0
2023/11/29 09:38:10.000   12.775491506   77.359581223   663.8420   5  32   3.4383   3.3373   6.7226   1.1069   2.0505  -1.7949   0.00    0.0
2023/11/29 09:38:11.000   12.775391007   77.359400124   663.6800   5  32   3.4383   3.3373   6.7226   1.1069   2.0508  -1.7947   0.00    0.0
2023/11/29 09:38:12.000   12.775287303   77.359218390   665.7216   5  32   3.4382   3.3373   6.7226   1.1068   2.0511  -1.7945   0.00    0.0
2023/11/29 09:38:13.000   12.775174607   77.359041716   664.9703   5  32   3.4382   3.3373   6.7227   1.1068   2.0514  -1.7942   0.00    0.0
2023/11/29 09:38:14.000   12.775064968   77.358868240   666.5291   5  32   3.4382   3.3373   6.7227   1.1067   2.0517  -1.7940   0.00    0.0
2023/11/29 09:38:15.000   12.774959889   77.358693260   665.6189   5  32   3.4382   3.3373   6.7227   1.1067   2.0520  -1.7937   0.00    0.0
2023/11/29 09:38:16.000   12.774845958   77.358512794   665.5479   5  32   3.4382   3.3373   6.7227   1.1067   2.0523  -1.7935   0.00    0.0
2023/11/29 09:38:17.000   12.774731528   77.358326043   666.4778   5  32   3.4381   3.3373   6.7228   1.1066   2.0526  -1.7933   0.00    0.0
2023/11/29 09:38:18.000   12.774602884   77.358142961   666.7684   5  32   3.4381   3.3373   6.7228   1.1066   2.0529  -1.7930   0.00    0.0
2023/11/29 09:38:19.000   12.774484269   77.357955374   665.5637   5  32   3.4381   3.3373   6.7228   1.1065   2.0532  -1.7928   0.00    0.0
2023/11/29 09:38:20.000   12.774365485   77.357771211   667.5255   5  32   3.4381   3.3373   6.7229   1.1065   2.0535  -1.7925   0.00    0.0
2023/11/29 09:38:21.000   12.774246562   77.357591292   668.5617   5  32   3.4381   3.3373   6.7229   1.1065   2.0538  -1.7923   0.00    0.0
2023/11/29 09:38:22.000   12.774134609   77.357412407   668.2190   5  32   3.4380   3.3373   6.7229   1.1064   2.0541  -1.7920   0.00    0.0
2023/11/29 09:38:23.000   12.774015933   77.357237871   668.9453   5  32   3.4380   3.3374   6.7229   1.1064   2.0544  -1.7918   0.00    0.0
2023/11/29 09:38:24.000   12.773901824   77.357070052   671.2696   5  32   3.4380   3.3374   6.7230   1.1063   2.0547  -1.7916   0.00    0.0
2023/11/29 09:38:25.000   12.773789878   77.356902015   671.3350   5  32   3.4380   3.3374   6.7230   1.1063   2.0551  -1.7913   0.00    0.0
2023/11/29 09:38:26.000   12.773688443   77.356743369   671.6933   5  32   3.4380   3.3374   6.7230   1.1063   2.0554  -1.7911   0.00    0.0
2023/11/29 09:38:27.000   12.773578420   77.356579805   672.2278   5  32   3.4379   3.3374   6.7231   1.1062   2.0557  -1.7908   0.00    0.0
2023/11/29 09:38:28.000   12.773478292   77.356419796   672.6692   5  32   3.4379   3.3374   6.7231   1.1062   2.0560  -1.7906   0.00    0.0
2023/11/29 09:38:29.000   12.773372986   77.356263218   671.7298   5  32   3.4379   3.3374   6.7231   1.1062   2.0563  -1.7903   0.00    0.0
2023/11/29 09:38:30.000   12.773268915   77.356102843   673.9531   5  32   3.4379   3.3374   6.7232   1.1061   2.0566  -1.7901   0.00    0.0
2023/11/29 09:38:31.000   12.773158433   77.355933610   673.5300   5  32   3.4379   3.3374   6.7232   1.1061   2.0569  -1.7898   0.00    0.0
2023/11/29 09:38:32.000   12.773055616   77.355761748   672.5405   5  32   3.4378   3.3374   6.7232   1.1060   2.0572  -1.7896   0.00    0.0
2023/11/29 09:38:33.000   12.772946754   77.355597194   673.3347   5  32   3.4378   3.3374   6.7232   1.1060   2.0575  -1.7894   0.00    0.0
2023/11/29 09:38:34.000   12.772840497   77.355423271   672.4449   5  32   3.4378   3.3374   6.7233   1.1060   2.0578  -1.7891   0.00    0.0
2023/11/29 09:38:35.000   12.772725511   77.355262629   672.3503   5  32   3.4378   3.3375   6.7233   1.1059   2.0581  -1.7889   0.00    0.0
2023/11/29 09:38:36.000   12.772616126   77.355106799   674.0165   5  32   3.4377   3.3375   6.7233   1.1059   2.0584  -1.7886   0.00    0.0
2023/11/29 09:38:37.000   12.772505296   77.354944379   672.0682   5  32   3.4377   3.3375   6.7234   1.1058   2.0587  -1.7884   0.00    0.0
2023/11/29 09:38:38.000   12.772408742   77.354782921   673.7171   5  32   3.4377   3.3375   6.7234   1.1058   2.0590  -1.7881   0.00    0.0
2023/11/29 09:38:39.000   12.772294757   77.354626804   673.0056   5  32   3.4377   3.3375   6.7234   1.1058   2.0593  -1.7879   0.00    0.0
2023/11/29 09:38:40.000   12.772212079   77.354464091   677.7291   5  32   3.4377   3.3375   6.7235   1.1057   2.0596  -1.7877   0.00    0.0
2023/11/29 09:38:41.000   12.772100942   77.354302973   674.5039   5  31   3.5641   3.4432   6.9151   0.6525   2.3690  -2.1717   0.00    0.0
2023/11/29 09:38:42.000   12.772011982   77.354134858   676.4404   5  32   3.4376   3.3375   6.7235   1.1056   2.0602  -1.7872   0.00    0.0
2023/11/29 09:38:43.000   12.771917552   77.353965254   677.7932   5  32   3.4376   3.3375   6.7236   1.1056   2.0605  -1.7869   0.00    0.0
2023/11/29 09:38:44.000   12.771828349   77.353779872   678.0318   5  32   3.4376   3.3375   6.7236   1.1056   2.0608  -1.7867   0.00    0.0
2023/11/29 09:38:45.000   12.771741593   77.353615079   679.7933   5  32   3.4376   3.3375   6.7236   1.1055   2.0611  -1.7864   0.00    0.0
2023/11/29 09:38:46.000   12.771665968   77.353442540   680.6473   5  32   3.4375   3.3375   6.7237   1.1055   2.0614  -1.7862   0.00    0.0
2023/11/29 09:38:47.000   12.771597000   77.353280722   679.6303   5  32   3.4375   3.3375   6.7237   1.1054   2.0618  -1.7860   0.00    0.0
2023/11/29 09:38:48.000   12.771520475   77.353127667   680.5341   5  32   3.4375   3.3376   6.7237   1.1054   2.0621  -1.7857   0.00    0.0
2023/11/29 09:38:49.000   12.771461228   77.352985504   682.9281   5  32   3.4375   3.3376   6.7238   1.1054   2.0624  -1.7855   0.00    0.0
2023/11/29 09:38:50.000   12.771391292   77.352843665   682.1754   5  32   3.4374   3.3376   6.7238   1.1053   2.0627  -1.7852   0.00    0.0
2023/11/29 09:38:51.000   12.771329890   77.352697030   682.5878   5  32   3.4374   3.3376   6.7238   1.1053   2.0630  -1.7850   0.00    0.0
2023/11/29 09:38:52.000   12.771256289   77.352543423   683.8682   5  32   3.4374   3.3376   6.7238   1.1052   2.0633  -1.7847   0.00    0.0
2023/11/29 09:38:53.000   12.771177734   77.352390650   684.3549   5  32   3.4374   3.3376   6.7239   1.1052   2.0636  -1.7845   0.00    0.0
2023/11/29 09:38:54.000   12.771117152   77.352228613   683.9938   5  31   3.5318   3.3403   6.8817   1.1538   2.1114  -1.4123   0.00    0.0
2023/11/29 09:38:55.000   12.771059845   77.352063965   686.1644   5  32   3.4373   3.3376   6.7239   1.1051   2.0642  -1.7840   0.00    0.0
2023/11/29 09:38:56.000   12.771014721   77.351884970   688.5245   5  31   3.4970   3.3468   6.8530   1.0304   1.9834  -1.5265   0.00    0.0
2023/11/29 09:38:57.000   12.770953463   77.351693851   686.5775   5  31   3.4970   3.3468   6.8531   1.0303   1.9837  -1.5263   0.00    0.0
2023/11/29 09:38:58.000   12.770880798   77.351501675   686.0004   5  32   3.4373   3.3376   6.7240   1.1050   2.0651  -1.7833   0.00    0.0
2023/11/29 09:38:59.000   12.770821017   77.351311856   685.9873   5  32   3.4373   3.3376   6.7241   1.1049   2.0654  -1.7831   0.00    0.0
2023/11/29 09:39:00.000   12.770760282   77.351126088   685.1603   5  32   3.4372   3.3377   6.7241   1.1049   2.0657  -1.7828   0.00    0.0
2023/11/29 09:39:01.000   12.770711359   77.350938615   686.7348   5  32   3.4372   3.3377   6.7241   1.1049   2.0660  -1.7826   0.00    0.0
2023/11/29 09:39:02.000   12.770639831   77.350757461   682.9122   5  32   3.4372   3.3377   6.7242   1.1048   2.0663  -1.7823   0.00    0.0
2023/11/29 09:39:03.000   12.770609639   77.350561224   684.7801   5  32   3.4372   3.3377   6.7242   1.1048   2.0667  -1.7821   0.00    0.0
2023/11/29 09:39:04.000   12.770552216   77.350382140   683.5866   5  32   3.4372   3.3377   6.7243   1.1047   2.0670  -1.7819   0.00    0.0
2023/11/29 09:39:05.000   12.770504614   77.350185830   683.4563   5  32   3.4371   3.3377   6.7243   1.1047   2.0673  -1.7816   0.00    0.0
2023/11/29 09:39:06.000   12.770463608   77.349981661   682.9622   5  32   3.4371   3.3377   6.7243   1.1047   2.0676  -1.7814   0.00    0.0
2023/11/29 09:39:07.000   12.770417276   77.349760750   682.4365   5  32   3.4371   3.3377   6.7244   1.1046   2.0679  -1.7811   0.00    0.0
2023/11/29 09:39:08.000   12.770376715   77.349544393   683.4792   5  32   3.4371   3.3377   6.7244   1.1046   2.0682  -1.7809   0.00    0.0
2023/11/29 09:39:09.000   12.770333858   77.349322789   682.6581   5  32   3.4371   3.3377   6.7244   1.1045   2.0685  -1.7807   0.00    0.0
2023/11/29 09:39:10.000   12.770299156   77.349093747   682.8134   5  32   3.4370   3.3377   6.7245   1.1045   2.0688  -1.7804   0.00    0.0
2023/11/29 09:39:11.000   12.770267812   77.348869789   683.5801   5  32   3.4370   3.3377   6.7245   1.1044   2.0691  -1.7802   0.00    0.0
2023/11/29 09:39:12.000   12.770237401   77.348644092   683.4002   5  32   3.4370   3.3378   6.7245   1.1044   2.0695  -1.7799   0.00    0.0
2023/11/29 09:39:13.000   12.770205281   77.348419667   682.6349   5  32   3.4370   3.3378   6.7246   1.1044   2.0698  -1.7797   0.00    0.0
2023/11/29 09:39:14.000   12.770151876   77.348200658   678.5867   5  31   3.5316   3.3405   6.8823   1.1527   2.1172  -1.4060   0.00    0.0
2023/11/29 09:39:15.000   12.770114713   77.347980297   678.0691   5  31   3.5316   3.3405   6.8824   1.1527   2.1174  -1.4057   0.00    0.0
2023/11/29 09:39:16.000   12.770081927   77.347763569   677.9247   5  31   3.5316   3.3405   6.8824   1.1526   2.1177  -1.4054   0.00    0.0
2023/11/29 09:39:17.000   12.770040256   77.347539768   676.7450   5  31   3.5316   3.3405   6.8824   1.1526   2.1180  -1.4050   0.00    0.0
2023/11/29 09:39:18.000   12.770027321   77.347324854   680.3294   5  32   3.4369   3.3378   6.7248   1.1041   2.0713  -1.7785   0.00    0.0
2023/11/29 09:39:19.000   12.770001069   77.347103201   680.9436   5  32   3.4369   3.3378   6.7248   1.1041   2.0716  -1.7783   0.00    0.0
2023/11/29 09:39:20.000   12.769978227   77.346888218   680.8622   5  32   3.4368   3.3378   6.7248   1.1041   2.0720  -1.7780   0.00    0.0
2023/11/29 09:39:21.000   12.769950831   77.346657057   679.4563   5  32   3.4368   3.3378   6.7249   1.1040   2.0723  -1.7778   0.00    0.0
2023/11/29 09:39:22.000   12.769913500   77.346434940   677.0414   5  31   3.5315   3.3405   6.8826   1.1523   2.1195  -1.4035   0.00    0.0
2023/11/29 09:39:23.000   12.769892504   77.346211650   676.8643   5  31   3.5315   3.3406   6.8826   1.1522   2.1198  -1.4031   0.00    0.0
2023/11/29 09:39:24.000   12.769858856   77.345985389   676.0228   5  31   3.5315   3.3406   6.8827   1.1522   2.1201  -1.4028   0.00    0.0
2023/11/29 09:39:25.000   12.769843873   77.345745441   677.9428   5  30   3.7111   3.3438   6.9803   1.2230   2.1605  -0.8003   0.00    0.0
2023/11/29 09:39:26.000   12.769801675   77.345517800   675.5192   5  30   3.7110   3.3438   6.9804   1.2230   2.1608  -0.7996   0.00    0.0
2023/11/29 09:39:27.000   12.769774409   77.345271076   674.3388   5  30   3.7110   3.3439   6.9805   1.2230   2.1611  -0.7988   0.00    0.0
2023/11/29 09:39:28.000   12.769728641   77.345029318   672.3388   5  31   3.5314   3.3406   6.8828   1.1520   2.1212  -1.4016   0.00    0.0
2023/11/29 09:39:29.000   12.769715208   77.344804835   675.1637   5  32   3.4367   3.3379   6.7252   1.1037   2.0748  -1.7759   0.00    0.0
2023/11/29 09:39:30.000   12.769673961   77.344590264   671.1839   5  31   3.5314   3.3406   6.8829   1.1519   2.1218  -1.4009   0.00    0.0
2023/11/29 09:39:31.000   12.769651147   77.344388801   672.2216   5  31   3.5314   3.3406   6.8829   1.1518   2.1221  -1.4006   0.00    0.0
2023/11/29 09:39:32.000   12.769624374   77.344194640   671.7389   5  31   3.5314   3.3406   6.8830   1.1518   2.1224  -1.4003   0.00    0.0
2023/11/29 09:39:33.000   12.769595193   77.344004744   672.6868   5  31   3.5313   3.3406   6.8830   1.1517   2.1227  -1.4000   0.00    0.0
2023/11/29 09:39:34.000   12.769570720   77.343801737   671.7666   5  31   3.5313   3.3406   6.8830   1.1516   2.1230  -1.3997   0.00    0.0
2023/11/29 09:39:35.000   12.769539594   77.343594338   671.9963   5  31   3.5313   3.3407   6.8831   1.1516   2.1233  -1.3993   0.00    0.0
2023/11/29 09:39:36.000   12.769509414   77.343376206   672.6630   5  31   3.5313   3.3407   6.8831   1.1515   2.1236  -1.3990   0.00    0.0
2023/11/29 09:39:37.000   12.769481318   77.343147984   673.0380   5  31   3.5313   3.3407   6.8831   1.1515   2.1238  -1.3987   0.00    0.0
2023/11/29 09:39:38.000   12.769445562   77.342909221   674.4046   5  31   3.5313   3.3407   6.8832   1.1514   2.1241  -1.3984   0.00    0.0
2023/11/29 09:39:39.000   12.769434070   77.342666934   678.3596   5  32   3.4364   3.3380   6.7256   1.1032   2.0779  -1.7735   0.00    0.0
2023/11/29 09:39:40.000   12.769376345   77.342428793   675.3449   5  31   3.5313   3.3407   6.8833   1.1513   2.1247  -1.3977   0.00    0.0
2023/11/29 09:39:41.000   12.769347068   77.342198664   675.9772   5  30   3.5989   3.3428   7.0298   1.1149   2.0848  -0.9804   0.00    0.0
2023/11/29 09:39:42.000   12.769310291   77.341978297   674.9569   5  30   3.5989   3.3428   7.0298   1.1148   2.0850  -0.9800   0.00    0.0
2023/11/29 09:39:43.000   12.769279733   77.341756302   676.6915   5  31   3.5312   3.3407   6.8834   1.1512   2.1256  -1.3968   0.00    0.0
2023/11/29 09:39:44.000   12.769254312   77.341542383   677.2257   5  31   3.5312   3.3407   6.8834   1.1511   2.1259  -1.3965   0.00    0.0
2023/11/29 09:39:45.000   12.769227574   77.341330282   679.6171   5  31   3.5312   3.3407   6.8834   1.1510   2.1262  -1.3961   0.00    0.0
2023/11/29 09:39:46.000   12.769193553   77.341110304   677.8522   5  31   3.5312   3.3407   6.8835   1.1510   2.1265  -1.3958   0.00    0.0
2023/11/29 09:39:47.000   12.769170703   77.340891747   678.2035   5  31   3.5312   3.3407   6.8835   1.1509   2.1268  -1.3955   0.00    0.0
2023/11/29 09:39:48.000   12.769135828   77.340678546   679.0017   5  31   3.5311   3.3408   6.8835   1.1509   2.1271  -1.3952   0.00    0.0
2023/11/29 09:39:49.000   12.769104643   77.340462604   678.9895   5  31   3.5311   3.3408   6.8836   1.1508   2.1274  -1.3949   0.00    0.0
2023/11/29 09:39:50.000   12.769080345   77.340241631   680.0972   5  31   3.5311   3.3408   6.8836   1.1508   2.1276  -1.3945   0.00    0.0
2023/11/29 09:39:51.000   12.769051506   77.340031115   680.5278   5  31   3.5311   3.3408   6.8837   1.1507   2.1279  -1.3942   0.00    0.0
2023/11/29 09:39:52.000   12.769019281   77.339811256   679.1361   5  31   3.5311   3.3408   6.8837   1.1507   2.1282  -1.3939   0.00    0.0
2023/11/29 09:39:53.000   12.768993029   77.339593551   680.4865   5  31   3.5311   3.3408   6.8837   1.1506   2.1285  -1.3936   0.00    0.0
2023/11/29 09:39:54.000   12.768967761   77.339380568   681.1040   5  31   3.5311   3.3408   6.8838   1.1506   2.1288  -1.3933   0.00    0.0
2023/11/29 09:39:55.000   12.768923893   77.339163702   678.6037   5  32   3.4361   3.3382   6.7262   1.1025   2.0829  -1.7696   0.00    0.0
2023/11/29 09:39:56.000   12.768903605   77.338953652   680.2231   5  31   3.5310   3.3408   6.8839   1.1505   2.1294  -1.3926   0.00    0.0
2023/11/29 09:39:57.000   12.768879430   77.338733822   680.7680   5  31   3.5310   3.3408   6.8839   1.1504   2.1297  -1.3923   0.00    0.0
2023/11/29 09:39:58.000   12.768847312   77.338517020   680.7297   5  31   3.5310   3.3408   6.8839   1.1503   2.1300  -1.3920   0.00    0.0
2023/11/29 09:39:59.000   12.768817775   77.338299016   680.5078   5  31   3.5310   3.3408   6.8840   1.1503   2.1303  -1.3917   0.00    0.0
2023/11/29 09:40:00.000   12.768782697   77.338084334   681.2986   5  31   3.5310   3.3409   6.8840   1.1502   2.1306  -1.3913   0.00    0.0
2023/11/29 09:40:01.000   12.768743108   77.337873945   679.7570   5  31   3.5310   3.3409   6.8840   1.1502   2.1309  -1.3910   0.00    0.0
2023/11/29 09:40:02.000   12.768757544   77.337671149   690.0390   5  32   3.4360   3.3382   6.7265   1.1022   2.0851  -1.7679   0.00    0.0
2023/11/29 09:40:03.000   12.768680096   77.337471886   682.7540   5  31   3.5309   3.3409   6.8841   1.1501   2.1314  -1.3904   0.00    0.0
2023/11/29 09:40:04.000   12.768641407   77.337294858   685.2794   5  31   3.5309   3.3409   6.8842   1.1500   2.1317  -1.3901   0.00    0.0
2023/11/29 09:40:05.000   12.768598716   77.337123064   684.8319   5  31   3.5309   3.3409   6.8842   1.1500   2.1320  -1.3897   0.00    0.0
2023/11/29 09:40:06.000   12.768548721   77.336963723   685.6746   5  31   3.5309   3.3409   6.8842   1.1499   2.1323  -1.3894   0.00    0.0
2023/11/29 09:40:07.000   12.768489406   77.336815161   687.0535   5  31   3.5309   3.3409   6.8843   1.1499   2.1326  -1.3891   0.00    0.0
2023/11/29 09:40:08.000   12.768435623   77.336672799   687.5329   5  31   3.5309   3.3409   6.8843   1.1498   2.1329  -1.3887   0.00    0.0
2023/11/29 09:40:09.000   12.768380780   77.336526137   686.5195   5  31   3.5308   3.3409   6.8844   1.1497   2.1331  -1.3884   0.00    0.0
2023/11/29 09:40:10.000   12.768328972   77.336385499   687.6024   5  31   3.5308   3.3409   6.8844   1.1497   2.1334  -1.3881   0.00    0.0
2023/11/29 09:40:11.000   12.768298220   77.336235763   693.6880   5  31   3.5308   3.3409   6.8844   1.1496   2.1337  -1.3878   0.00    0.0
2023/11/29 09:40:12.000   12.768218055   77.336113310   689.4694   5  31   3.5308   3.3409   6.8845   1.1496   2.1340  -1.3874   0.00    0.0
2023/11/29 09:40:13.000   12.768148637   77.335987748   689.0149   5  31   3.5308   3.3410   6.8845   1.1495   2.1343  -1.3871   0.00    0.0
2023/11/29 09:40:14.000   12.768086647   77.335868294   687.7036   5  31   3.5308   3.3410   6.8845   1.1495   2.1346  -1.3868   0.00    0.0
2023/11/29 09:40:15.000   12.768042296   77.335745929   689.2151   5  31   3.5307   3.3410   6.8846   1.1494   2.1348  -1.3865   0.00    0.0
2023/11/29 09:40:16.000   12.767990133   77.335666876   687.6348   5  31   3.5307   3.3410   6.8846   1.1494   2.1351  -1.3861   0.00    0.0
2023/11/29 09:40:17.000   12.767968488   77.335592564   688.6886   5  31   3.5307   3.3410   6.8847   1.1493   2.1354  -1.3858   0.00    0.0
2023/11/29 09:40:18.000   12.767947414   77.335549221   688.7381   5  31   3.5307   3.3410   6.8847   1.1493   2.1357  -1.3855   0.00    0.0
2023/11/29 09:40:19.000   12.767933691   77.335517102   689.2050   5  31   3.5307   3.3410   6.8847   1.1492   2.1360  -1.3852   0.00    0.0
2023/11/29 09:40:20.000   12.767926576   77.335497262   689.2404   5  31   3.5306   3.3410   6.8848   1.1492   2.1362  -1.3848   0.00    0.0
2023/11/29 09:40:21.000   12.767926714   77.335484469   687.4480   5  31   3.5306   3.3410   6.8848   1.1491   2.1365  -1.3845   0.00    0.0
2023/11/29 09:40:22.000   12.767914818   77.335469955   688.4229   5  31   3.5306   3.3410   6.8848   1.1491   2.1368  -1.3842   0.00    0.0
2023/11/29 09:40:23.000   12.767906538   77.335433771   687.6003   5  31   3.5306   3.3410   6.8849   1.1490   2.1370  -1.3839   0.00    0.0
2023/11/29 09:40:24.000   12.767885147   77.335398375   689.1021   5  31   3.5306   3.3410   6.8849   1.1490   2.1373  -1.3835   0.00    0.0
2023/11/29 09:40:25.000   12.767866704   77.335340011   688.5062   5  31   3.5306   3.3410   6.8849   1.1489   2.1376  -1.3832   0.00    0.0
2023/11/29 09:40:26.000   12.767834660   77.335284482   689.4614   5  31   3.5305   3.3410   6.8850   1.1488   2.1379  -1.3829   0.00    0.0
2023/11/29 09:40:27.000   12.767810909   77.335227400   688.9605   5  31   3.5305   3.3410   6.8850   1.1488   2.1382  -1.3825   0.00    0.0
2023/11/29 09:40:28.000   12.767791845   77.335164667   688.5349   5  31   3.5305   3.3410   6.8851   1.1487   2.1384  -1.3822   0.00    0.0
2023/11/29 09:40:29.000   12.767765020   77.335092314   687.9753   5  31   3.5305   3.3410   6.8851   1.1487   2.1387  -1.3819   0.00    0.0
2023/11/29 09:40:31.000   12.767706936   77.334913636   687.4726   5  31   3.5304   3.3411   6.8852   1.1486   2.1393  -1.3812   0.00    0.0
2023/11/29 09:40:32.000   12.767665928   77.334814198   685.4242   5  31   3.5304   3.3411   6.8852   1.1485   2.1396  -1.3809   0.00    0.0
2023/11/29 09:40:33.000   12.767636516   77.334700659   684.9767   5  31   3.5304   3.3411   6.8852   1.1485   2.1398  -1.3806   0.00    0.0
2023/11/29 09:40:34.000   12.767596019   77.334590440   684.3828   5  31   3.5304   3.3411   6.8853   1.1484   2.1401  -1.3803   0.00    0.0
2023/11/29 09:40:35.000   12.767558582   77.334475051   684.2348   5  31   3.5304   3.3411   6.8853   1.1484   2.1404  -1.3799   0.00    0.0
2023/11/29 09:40:36.000   12.767517335   77.334361999   684.4066   5  31   3.5304   3.3411   6.8854   1.1483   2.1407  -1.3796   0.00    0.0
2023/11/29 09:40:37.000   12.767471052   77.334256475   682.9494   5  31   3.5303   3.3411   6.8854   1.1483   2.1410  -1.3793   0.00    0.0
2023/11/29 09:40:38.000   12.767419539   77.334143485   682.8838   5  31   3.5303   3.3411   6.8854   1.1482   2.1412  -1.3789   0.00    0.0
2023/11/29 09:40:39.000   12.767354866   77.334034518   682.8321   5  31   3.5303   3.3411   6.8855   1.1481   2.1415  -1.3786   0.00    0.0
2023/11/29 09:40:40.000   12.767289338   77.333927252   680.5069   5  31   3.5303   3.3411   6.8855   1.1481   2.1418  -1.3783   0.00    0.0
2023/11/29 09:40:41.000   12.767222057   77.333813764   680.2573   5  31   3.5303   3.3411   6.8856   1.1480   2.1421  -1.3779   0.00    0.0
2023/11/29 09:40:42.000   12.767142080   77.333709189   680.0824   5  31   3.5302   3.3411   6.8856   1.1480   2.1424  -1.3776   0.00    0.0
2023/11/29 09:40:43.000   12.767075019   77.333593709   681.3799   5  31   3.5302   3.3411   6.8856   1.1479   2.1427  -1.3773   0.00    0.0
2023/11/29 09:40:44.000   12.766982824   77.333485137   678.2932   5  31   3.5302   3.3411   6.8857   1.1479   2.1429  -1.3769   0.00    0.0
2023/11/29 09:40:45.000   12.766892143   77.333369955   678.6531   5  31   3.5302   3.3411   6.8857   1.1478   2.1432  -1.3766   0.00    0.0
2023/11/29 09:40:46.000   12.766794281   77.333255156   678.5089   5  31   3.5302   3.3412   6.8858   1.1478   2.1435  -1.3763   0.00    0.0
2023/11/29 09:40:47.000   12.766693219   77.333138468   677.4885   5  31   3.5302   3.3412   6.8858   1.1477   2.1438  -1.3759   0.00    0.0
2023/11/29 09:40:48.000   12.766591212   77.333017128   678.5871   5  31   3.5301   3.3412   6.8859   1.1477   2.1441  -1.3756   0.00    0.0
2023/11/29 09:40:49.000   12.766480499   77.332886297   677.8484   5  30   3.6166   3.3495   7.0638   1.0636   2.0557  -0.8078   0.00    0.0
2023/11/29 09:40:50.000   12.766367034   77.332749200   677.4361   5  30   3.6166   3.3495   7.0639   1.0635   2.0560  -0.8073   0.00    0.0
2023/11/29 09:40:51.000   12.766252692   77.332613502   679.4669   5  31   3.5301   3.3412   6.8860   1.1475   2.1449  -1.3746   0.00    0.0
2023/11/29 09:40:52.000   12.766120119   77.332466317   676.8585   5  31   3.5301   3.3412   6.8860   1.1475   2.1452  -1.3743   0.00    0.0
2023/11/29 09:40:53.000   12.766009307   77.332300989   680.8898   5  31   3.5300   3.3412   6.8861   1.1474   2.1455  -1.3739   0.00    0.0
2023/11/29 09:40:54.000   12.765875958   77.332135410   684.7200   5  31   3.5300   3.3412   6.8861   1.1474   2.1458  -1.3736   0.00    0.0
2023/11/29 09:40:55.000   12.765674063   77.331983288   676.1430   5  30   3.6165   3.3496   7.0640   1.0631   2.0574  -0.8045   0.00    0.0
2023/11/29 09:40:56.000   12.765525530   77.331812181   676.1058   5  30   3.6165   3.3496   7.0640   1.0630   2.0576  -0.8040   0.00    0.0
2023/11/29 09:40:57.000   12.765372814   77.331639038   676.0301   5  30   3.6165   3.3496   7.0641   1.0630   2.0579  -0.8034   0.00    0.0
2023/11/29 09:40:58.000   12.765239734   77.331463825   680.0513   5  31   3.5299   3.3412   6.8863   1.1472   2.1469  -1.3722   0.00    0.0
2023/11/29 09:40:59.000   12.765075035   77.331297730   676.3198   5  30   3.6164   3.3496   7.0641   1.0628   2.0585  -0.8023   0.00    0.0
2023/11/29 09:41:00.000   12.764923024   77.331126702   676.7139   5  31   3.5299   3.3413   6.8864   1.1471   2.1475  -1.3715   0.00    0.0
2023/11/29 09:41:01.000   12.764766568   77.330953118   675.2311   5  31   3.5299   3.3413   6.8864   1.1470   2.1478  -1.3712   0.00    0.0
2023/11/29 09:41:02.000   12.764602604   77.330784164   675.7823   5  31   3.5299   3.3413   6.8865   1.1469   2.1481  -1.3709   0.00    0.0
2023/11/29 09:41:03.000   12.764448951   77.330602721   674.7167   5  31   3.5298   3.3413   6.8865   1.1469   2.1484  -1.3705   0.00    0.0
2023/11/29 09:41:04.000   12.764287746   77.330432748   675.4867   5  31   3.5298   3.3413   6.8865   1.1468   2.1486  -1.3702   0.00    0.0
2023/11/29 09:41:05.000   12.764128944   77.330264039   673.7167   5  31   3.5298   3.3413   6.8866   1.1468   2.1489  -1.3698   0.00    0.0
2023/11/29 09:41:06.000   12.763961383   77.330108627   674.5995   5  31   3.5298   3.3413   6.8866   1.1467   2.1492  -1.3695   0.00    0.0
2023/11/29 09:41:07.000   12.763808434   77.329954714   675.8743   5  31   3.5298   3.3413   6.8867   1.1467   2.1495  -1.3691   0.00    0.0
2023/11/29 09:41:08.000   12.763659456   77.329804904   676.0916   5  31   3.5298   3.3413   6.8867   1.1466   2.1498  -1.3688   0.00    0.0
2023/11/29 09:41:09.000   12.763501938   77.329657925   675.0056   5  31   3.5297   3.3413   6.8868   1.1466   2.1501  -1.3685   0.00    0.0
2023/11/29 09:41:10.000   12.763350110   77.329514212   674.5316   5  31   3.5297   3.3413   6.8868   1.1465   2.1504  -1.3681   0.00    0.0
2023/11/29 09:41:11.000   12.763198329   77.329378473   673.9840   5  31   3.5297   3.3414   6.8869   1.1465   2.1506  -1.3678   0.00    0.0
2023/11/29 09:41:12.000   12.763047017   77.329236155   674.3837   5  31   3.5297   3.3414   6.8869   1.1464   2.1509  -1.3674   0.00    0.0
2023/11/29 09:41:13.000   12.762896630   77.329089130   675.6545   5  31   3.5297   3.3414   6.8869   1.1464   2.1512  -1.3671   0.00    0.0
2023/11/29 09:41:14.000   12.762734179   77.328943755   674.9769   5  31   3.5296   3.3414   6.8870   1.1463   2.1515  -1.3667   0.00    0.0
2023/11/29 09:41:15.000   12.762576234   77.328795352   674.5244   5  31   3.5296   3.3414   6.8870   1.1463   2.1518  -1.3664   0.00    0.0
2023/11/29 09:41:16.000   12.762420127   77.328638285   673.4045   5  31   3.5296   3.3414   6.8871   1.1462   2.1521  -1.3661   0.00    0.0
2023/11/29 09:41:17.000   12.762254578   77.328485282   674.2034   5  31   3.5296   3.3414   6.8871   1.1462   2.1524  -1.3657   0.00    0.0
2023/11/29 09:41:18.000   12.762089959   77.328328303   673.7183   5  31   3.5296   3.3414   6.8872   1.1461   2.1526  -1.3654   0.00    0.0
2023/11/29 09:41:19.000   12.761952878   77.328154476   674.2393   5  31   3.5295   3.3414   6.8872   1.1461   2.1529  -1.3650   0.00    0.0
2023/11/29 09:41:20.000   12.761759269   77.328015909   670.6840   5  31   3.5295   3.3414   6.8873   1.1460   2.1532  -1.3647   0.00    0.0
2023/11/29 09:41:21.000   12.761597788   77.327862607   672.5277   5  31   3.5295   3.3414   6.8873   1.1460   2.1535  -1.3643   0.00    0.0
2023/11/29 09:41:22.000   12.761435942   77.327705146   673.0943   5  31   3.5295   3.3414   6.8874   1.1459   2.1538  -1.3640   0.00    0.0
2023/11/29 09:41:23.000   12.761257700   77.327551488   668.7383   5  30   3.6160   3.3500   7.0648   1.0608   2.0651  -0.7888   0.00    0.0
2023/11/29 09:41:24.000   12.761093344   77.327400051   666.0216   5  29   3.7008   3.3536   7.2471   1.0015   2.0038   0.8069   0.00    0.0
2023/11/29 09:41:25.000   12.760934700   77.327247820   667.5685   5  30   3.6160   3.3500   7.0649   1.0607   2.0657  -0.7876   0.00    0.0
2023/11/29 09:41:26.000   12.760776412   77.327095066   667.2840   5  30   3.6160   3.3500   7.0649   1.0606   2.0659  -0.7871   0.00    0.0
2023/11/29 09:41:27.000   12.760635002   77.326942404   671.3650   5  31   3.5294   3.3415   6.8876   1.1457   2.1552  -1.3623   0.00    0.0
2023/11/29 09:41:28.000   12.760474283   77.326789579   668.5084   5  31   3.5293   3.3415   6.8876   1.1456   2.1555  -1.3619   0.00    0.0
2023/11/29 09:41:29.000   12.760314639   77.326639337   670.9180   5  31   3.5293   3.3415   6.8877   1.1456   2.1558  -1.3616   0.00    0.0
2023/11/29 09:41:30.000   12.760148377   77.326496217   666.9620   5  31   3.5293   3.3415   6.8877   1.1455   2.1561  -1.3612   0.00    0.0
2023/11/29 09:41:31.000   12.760001176   77.326341027   664.7085   5  31   3.5293   3.3415   6.8878   1.1455   2.1564  -1.3609   0.00    0.0
2023/11/29 09:41:32.000   12.759826255   77.326210590   661.7063   5  30   3.6158   3.3501   7.0651   1.0601   2.0676  -0.7836   0.00    0.0
2023/11/29 09:41:33.000   12.759680410   77.326073572   663.2101   5  31   3.5292   3.3415   6.8879   1.1453   2.1569  -1.3602   0.00    0.0
2023/11/29 09:41:34.000   12.759546193   77.325935444   664.3878   5  31   3.5292   3.3416   6.8879   1.1453   2.1572  -1.3598   0.00    0.0
2023/11/29 09:41:35.000   12.759393775   77.325807989   662.3561   5  31   3.5292   3.3416   6.8880   1.1452   2.1575  -1.3595   0.00    0.0
2023/11/29 09:41:36.000   12.759260582   77.325678354   659.9983   5  31   3.5292   3.3416   6.8880   1.1452   2.1578  -1.3592   0.00    0.0
2023/11/29 09:41:37.000   12.759125399   77.325559322   658.3269   5  31   3.5292   3.3416   6.8881   1.1451   2.1581  -1.3588   0.00    0.0
2023/11/29 09:41:38.000   12.758991439   77.325456596   654.8145   5  31   3.5291   3.3416   6.8881   1.1451   2.1583  -1.3585   0.00    0.0
2023/11/29 09:41:39.000   12.758907734   77.325353985   660.5237   5  31   3.5291   3.3416   6.8881   1.1450   2.1586  -1.3581   0.00    0.0
2023/11/29 09:41:40.000   12.758801455   77.325270998   657.1481   5  31   3.5291   3.3416   6.8882   1.1450   2.1589  -1.3578   0.00    0.0
2023/11/29 09:41:41.000   12.758729784   77.325194017   658.8836   5  30   3.6157   3.3502   7.0654   1.0594   2.0701  -0.7785   0.00    0.0
2023/11/29 09:41:42.000   12.758657580   77.325134596   659.4337   5  30   3.6156   3.3502   7.0654   1.0593   2.0703  -0.7779   0.00    0.0
2023/11/29 09:41:43.000   12.758601234   77.325080778   657.5590   5  30   3.6156   3.3502   7.0654   1.0592   2.0706  -0.7774   0.00    0.0
2023/11/29 09:41:44.000   12.758556666   77.325043097   658.9093   5  30   3.6156   3.3502   7.0655   1.0591   2.0709  -0.7768   0.00    0.0
2023/11/29 09:41:45.000   12.758524801   77.325009355   658.4824   5  31   3.6143   3.3410   7.0643   1.0478   2.0789  -0.7683   0.00    0.0
2023/11/29 09:41:46.000   12.758537136   77.324998950   662.8090   5  31   3.5290   3.3416   6.8885   1.1447   2.1606  -1.3558   0.00    0.0
2023/11/29 09:41:47.000   12.758495523   77.324971838   658.5927   5  31   3.6143   3.3410   7.0644   1.0477   2.0794  -0.7672   0.00    0.0
2023/11/29 09:41:48.000   12.758509378   77.324965524   663.4982   5  31   3.5289   3.3416   6.8886   1.1445   2.1611  -1.3551   0.00    0.0
2023/11/29 09:41:49.000   12.758486411   77.324947674   664.4732   5  31   3.5289   3.3417   6.8886   1.1445   2.1614  -1.3547   0.00    0.0
2023/11/29 09:41:50.000   12.758436752   77.324915597   657.7801   5  31   3.6142   3.3410   7.0644   1.0474   2.0802  -0.7655   0.00    0.0
2023/11/29 09:41:51.000   12.758403751   77.324887820   659.5488   5  31   3.6142   3.3410   7.0645   1.0473   2.0805  -0.7649   0.00    0.0
2023/11/29 09:41:52.000   12.758362883   77.324855364   659.9276   5  31   3.6142   3.3410   7.0645   1.0472   2.0808  -0.7643   0.00    0.0
2023/11/29 09:41:53.000   12.758338987   77.324807065   662.2472   5  32   3.5273   3.3325   6.8878   1.1332   2.1691  -1.3490   0.00    0.0