% obs start : 2023/11/29 10:11:32.0 GPST (week2290 295892.0s)
% obs end   : 2023/11/29 11:35:31.0 GPST (week2290 300931.0s)
% pos mode  : Single
% elev mask : 5.0 deg
% ionos opt : Broadcast
% tropo opt : Saastamoinen
% ephemeris : Broadcast
% navi sys  : GPS Galileo QZSS BDS NavIC
%
% (lat/lon/height=WGS84/ellipsoidal,Q=1:fix,2:float,3:sbas,4:dgps,5:single,6:ppp,ns=# of satellites)
%  GPST                  latitude(deg) longitude(deg)  height(m)   Q  ns   sdn(m)   sde(m)   sdu(m)  sdne(m)  sdeu(m)  sdun(m) age(s)  ratio
2023/11/29 11:05:57.000   12.546153153   76.928374333   585.1622   5  31   3.0865   3.0738   8.8438   1.1361   2.0444   2.2258   0.00    0.0
2023/11/29 11:05:58.000   12.546161613   76.928452546   587.5172   5  31   3.0864   3.0738   8.8443   1.1361   2.0447   2.2261   0.00    0.0
2023/11/29 11:05:59.000   12.546160086   76.928525420   587.3532   5  30   3.1131   3.1145   9.1385   1.0420   2.3098   2.0049   0.00    0.0
2023/11/29 11:06:00.000   12.546166194   76.928612786   585.1633   5  30   3.1130   3.1146   9.1390   1.0420   2.3100   2.0053   0.00    0.0
2023/11/29 11:06:01.000   12.546168461   76.928705007   586.3106   5  30   3.1129   3.1146   9.1395   1.0419   2.3103   2.0056   0.00    0.0
2023/11/29 11:06:02.000   12.546140232   76.928790624   586.3490   5  30   3.1128   3.1146   9.1400   1.0419   2.3105   2.0060   0.00    0.0
2023/11/29 11:06:03.000   12.546139094   76.928903780   588.8510   5  28   3.3581   3.2208   9.3432   0.9301   2.6117   1.6378   0.00    0.0
2023/11/29 11:06:04.000   12.546145191   76.929024836   586.7769   5  28   3.3580   3.2209   9.3436   0.9300   2.6119   1.6383   0.00    0.0
2023/11/29 11:06:05.000   12.546086319   76.929129807   588.3459   5  28   3.3578   3.2209   9.3441   0.9300   2.6121   1.6388   0.00    0.0
2023/11/29 11:06:06.000   12.545995791   76.929223841   591.1218   5  28   3.3577   3.2209   9.3445   0.9300   2.6123   1.6394   0.00    0.0
2023/11/29 11:06:07.000   12.546012811   76.929367992   593.8801   5  28   3.3576   3.2209   9.3450   0.9299   2.6125   1.6399   0.00    0.0
2023/11/29 11:06:08.000   12.546032413   76.929493059   588.2057   5  27   3.5972   3.2397   9.3531   1.1462   2.5875   1.4845   0.00    0.0
2023/11/29 11:06:09.000   12.546017107   76.929625256   593.4778   5  27   3.4100   3.2542   9.5093   1.0914   2.4583   1.2352   0.00    0.0
2023/11/29 11:06:10.000   12.546004916   76.929719753   591.4284   5  27   3.4099   3.2542   9.5097   1.0913   2.4585   1.2358   0.00    0.0
2023/11/29 11:06:11.000   12.546008531   76.929798423   593.0111   5  27   3.4947   3.2520   9.3572   1.1556   2.5756   1.4776   0.00    0.0
2023/11/29 11:06:12.000   12.546005359   76.929868901   590.7048   5  26   3.6558   3.2690   9.5172   1.2646   2.4365   1.0307   0.00    0.0
2023/11/29 11:06:13.000   12.546032139   76.929931115   590.1629   5  27   3.4094   3.2543   9.5110   1.0910   2.4592   1.2377   0.00    0.0
2023/11/29 11:06:14.000   12.545982762   76.929948924   593.7614   5  28   3.3649   3.2281   9.3534   0.9819   2.5999   1.5751   0.00    0.0
2023/11/29 11:06:15.000   12.545983737   76.929974372   592.5373   5  27   3.4092   3.2543   9.5118   1.0908   2.4596   1.2390   0.00    0.0
2023/11/29 11:06:16.000   12.545996380   76.929999855   591.1231   5  27   3.4938   3.2520   9.3597   1.1548   2.5764   1.4789   0.00    0.0
2023/11/29 11:06:17.000   12.545980978   76.930017383   595.1389   5  28   3.3645   3.2282   9.3548   0.9816   2.6005   1.5762   0.00    0.0
2023/11/29 11:06:18.000   12.545961350   76.930070296   600.8061   5  27   3.4950   3.3210   9.4572   0.4749   2.8005   1.0840   0.00    0.0
2023/11/29 11:06:19.000   12.545972090   76.930086100   594.0881   5  27   3.5269   3.3265   9.9453   1.3464   3.0776   2.4613   0.00    0.0
2023/11/29 11:06:20.000   12.545971743   76.930145907   589.8528   5  26   3.5706   3.3528  10.0891   1.4305   2.9602   2.2615   0.00    0.0
2023/11/29 11:06:21.000   12.545978004   76.930211441   591.1598   5  26   3.5704   3.3529  10.0895   1.4305   2.9605   2.2619   0.00    0.0
2023/11/29 11:06:22.000   12.545951151   76.930264227   591.0389   5  27   3.3836   3.3496   9.9424   1.3696   2.9169   1.7773   0.00    0.0
2023/11/29 11:06:23.000   12.545999539   76.930301993   599.6524   5  28   3.2079   3.2528   9.9127   1.0077   2.8096   1.5267   0.00    0.0
2023/11/29 11:06:24.000   12.545953234   76.930350772   592.7742   5  26   3.5879   3.3626   9.9564   1.4927   2.8907   1.5928   0.00    0.0
2023/11/29 11:06:25.000   12.545939861   76.930369309   595.1724   5  26   3.5699   3.3530  10.0911   1.4303   2.9614   2.2634   0.00    0.0
2023/11/29 11:06:26.000   12.545924945   76.930381023   587.6104   5  26   3.6531   3.2694   9.5230   1.2638   2.4398   1.0433   0.00    0.0
2023/11/29 11:06:27.000   12.545925292   76.930411497   586.8007   5  27   3.4074   3.2546   9.5169   1.0896   2.4624   1.2464   0.00    0.0
2023/11/29 11:06:28.000   12.545962490   76.930450656   585.7967   5  26   3.7779   3.3488   9.2748   0.9415   2.6874  -1.5575   0.00    0.0
2023/11/29 11:06:29.000   12.545945301   76.930499736   593.0200   5  26   3.5655   3.2884   9.5388   1.2965   2.4017   0.9441   0.00    0.0
2023/11/29 11:06:30.000   12.545935120   76.930535128   601.0323   5  28   3.1907   3.4177   9.0047   0.8490   2.3513  -0.1834   0.00    0.0
2023/11/29 11:06:31.000   12.545941800   76.930628566   596.6256   5  26   3.3746   3.4625   9.2759   1.0260   2.1582   0.6932   0.00    0.0
2023/11/29 11:06:32.000   12.545926300   76.930709534   598.1568   5  28   3.3228   3.3403   9.1330   0.9170   2.3779   1.1765   0.00    0.0
2023/11/29 11:06:33.000   12.545935823   76.930799641   596.6166   5  25   3.5064   3.4608  10.1363   0.6321   1.4656   2.0705   0.00    0.0
2023/11/29 11:06:34.000   12.545943331   76.930840005   601.0946   5  28   3.3226   3.3404   9.1338   0.9169   2.3784   1.1772   0.00    0.0
2023/11/29 11:06:35.000   12.545957421   76.930931544   596.4284   5  27   3.5318   3.3343   9.2424   0.6840   2.7334  -1.1600   0.00    0.0
2023/11/29 11:06:36.000   12.545948839   76.931036426   600.3731   5  28   3.3621   3.2286   9.3636   0.9800   2.6043   1.5837   0.00    0.0
2023/11/29 11:06:37.000   12.545942760   76.931160495   594.7184   5  26   3.4551   3.3909  10.5992   0.9499   3.1569   2.3325   0.00    0.0
2023/11/29 11:06:38.000   12.545947669   76.931285173   594.1301   5  27   3.3913   3.3909  10.0697   0.9561   3.1667   1.8046   0.00    0.0
2023/11/29 11:06:39.000   12.545952806   76.931408772   592.7484   5  25   3.6707   3.5306  11.5976   1.4563   3.8202   3.3583   0.00    0.0
2023/11/29 11:06:40.000   12.545959095   76.931527692   593.1253   5  26   3.5459   3.5274  11.0557   1.5052   3.8900   2.8201   0.00    0.0
2023/11/29 11:06:41.000   12.545971352   76.931669665   589.6335   5  26   3.5457   3.5274  11.0563   1.5052   3.8902   2.8204   0.00    0.0
2023/11/29 11:06:42.000   12.546017069   76.931787705   603.6565   5  26   3.5456   3.5275  11.0569   1.5051   3.8905   2.8206   0.00    0.0
2023/11/29 11:06:43.000   12.546014983   76.931913676   598.2106   5  26   3.5455   3.5276  11.0575   1.5051   3.8908   2.8208   0.00    0.0
2023/11/29 11:06:44.000   12.546034263   76.932022739   595.8517   5  26   4.1405   3.3173  10.3737   1.9823   3.2396   3.9326   0.00    0.0
2023/11/29 11:06:45.000   12.546028552   76.932101718   589.3478   5  25   4.1158   3.5138  12.1913   2.1127   4.0175   4.6934   0.00    0.0
2023/11/29 11:06:46.000   12.546038845   76.932178384   588.6837   5  26   3.6376   3.3801  11.1981   1.6168   3.3930   3.5703   0.00    0.0
2023/11/29 11:06:47.000   12.546048549   76.932254422   585.3856   5  26   3.6675   3.3916  10.8292   1.6815   3.4364   3.4227   0.00    0.0
2023/11/29 11:06:48.000   12.546069278   76.932307627   590.3940   5  25   3.6675   3.4072  11.3615   1.6778   3.2707   3.4420   0.00    0.0
2023/11/29 11:06:49.000   12.546077103   76.932344138   590.3199   5  27   3.3408   3.2854  10.0710   1.3838   2.8143   1.9814   0.00    0.0
2023/11/29 11:06:50.000   12.546079655   76.932359316   591.0980   5  27   3.5114   3.3769  10.6390   1.6614   3.4729   3.0715   0.00    0.0
2023/11/29 11:06:51.000   12.546074475   76.932364651   589.4900   5  28   3.3019   3.2595   9.9149   1.3060   2.9420   2.1968   0.00    0.0
2023/11/29 11:06:52.000   12.546085630   76.932358943   591.6666   5  29   3.2915   3.1369   9.1669   1.2143   2.3044   1.9597   0.00    0.0
2023/11/29 11:06:53.000   12.546085439   76.932363171   592.1184   5  28   3.4798   3.2170   9.6880   1.5099   2.7469   2.7168   0.00    0.0
2023/11/29 11:06:54.000   12.546082528   76.932368794   590.9052   5  29   3.2912   3.1370   9.1679   1.2141   2.3049   1.9604   0.00    0.0
2023/11/29 11:06:55.000   12.546094445   76.932389093   593.7084   5  29   3.2911   3.1370   9.1684   1.2141   2.3052   1.9607   0.00    0.0
2023/11/29 11:06:56.000   12.546094350   76.932407925   593.0153   5  29   3.2909   3.1370   9.1689   1.2140   2.3054   1.9610   0.00    0.0
2023/11/29 11:06:57.000   12.546096104   76.932440577   592.8837   5  29   3.2908   3.1371   9.1693   1.2140   2.3057   1.9613   0.00    0.0
2023/11/29 11:06:58.000   12.546093837   76.932483948   591.5888   5  29   3.2906   3.1371   9.1698   1.2139   2.3059   1.9616   0.00    0.0
2023/11/29 11:06:59.000   12.546098446   76.932524781   591.9460   5  29   3.2905   3.1371   9.1703   1.2138   2.3061   1.9619   0.00    0.0
2023/11/29 11:07:00.000   12.546104924   76.932563880   591.4113   5  29   3.2904   3.1371   9.1708   1.2138   2.3064   1.9622   0.00    0.0
2023/11/29 11:07:01.000   12.546119164   76.932615720   591.8996   5  29   3.2902   3.1372   9.1712   1.2137   2.3066   1.9626   0.00    0.0
2023/11/29 11:07:02.000   12.546130066   76.932680470   590.3633   5  29   3.2901   3.1372   9.1717   1.2137   2.3068   1.9629   0.00    0.0
2023/11/29 11:07:03.000   12.546143771   76.932755260   591.7205   5  29   3.2900   3.1372   9.1722   1.2136   2.3071   1.9632   0.00    0.0
2023/11/29 11:07:04.000   12.546156100   76.932833821   589.9418   5  29   3.2898   3.1372   9.1727   1.2135   2.3073   1.9635   0.00    0.0
2023/11/29 11:07:05.000   12.546176949   76.932916484   592.0371   5  29   3.2897   3.1373   9.1731   1.2135   2.3075   1.9638   0.00    0.0
2023/11/29 11:07:06.000   12.546194190   76.933007589   591.1589   5  29   3.2895   3.1373   9.1736   1.2134   2.3077   1.9641   0.00    0.0
2023/11/29 11:07:07.000   12.546213683   76.933095732   590.9592   5  29   3.2894   3.1373   9.1741   1.2133   2.3080   1.9644   0.00    0.0
2023/11/29 11:07:08.000   12.546227699   76.933180529   591.7837   5  30   3.2394   3.1056   8.8818   1.3138   2.0746   2.2743   0.00    0.0
2023/11/29 11:07:09.000   12.546243626   76.933268669   590.5263   5  30   3.2392   3.1056   8.8823   1.3138   2.0748   2.2745   0.00    0.0
2023/11/29 11:07:10.000   12.546263344   76.933366624   591.4570   5  30   3.2391   3.1056   8.8828   1.3137   2.0750   2.2747   0.00    0.0
2023/11/29 11:07:11.000   12.546278694   76.933464289   589.9831   5  30   3.2390   3.1056   8.8833   1.3137   2.0752   2.2750   0.00    0.0
2023/11/29 11:07:12.000   12.546298938   76.933575307   591.4802   5  30   3.2388   3.1056   8.8839   1.3136   2.0754   2.2752   0.00    0.0
2023/11/29 11:07:13.000   12.546316777   76.933678463   590.5065   5  30   3.2387   3.1056   8.8844   1.3136   2.0757   2.2754   0.00    0.0
2023/11/29 11:07:14.000   12.546335969   76.933773561   590.1246   5  30   3.2386   3.1057   8.8849   1.3136   2.0759   2.2757   0.00    0.0
2023/11/29 11:07:15.000   12.546350127   76.933856583   592.4059   5  30   3.2384   3.1057   8.8854   1.3135   2.0761   2.2759   0.00    0.0
2023/11/29 11:07:16.000   12.546365430   76.933916722   590.9089   5  30   3.2383   3.1057   8.8859   1.3135   2.0763   2.2761   0.00    0.0
2023/11/29 11:07:17.000   12.546374264   76.933966262   591.0195   5  30   3.2382   3.1057   8.8864   1.3134   2.0765   2.2763   0.00    0.0
2023/11/29 11:07:18.000   12.546384798   76.934002117   591.4400   5  30   3.2381   3.1057   8.8869   1.3134   2.0767   2.2766   0.00    0.0
2023/11/29 11:07:19.000   12.546388888   76.934034726   590.7797   5  30   3.2379   3.1057   8.8874   1.3133   2.0769   2.2768   0.00    0.0
2023/11/29 11:07:20.000   12.546395204   76.934049001   590.8564   5  30   3.2378   3.1057   8.8880   1.3133   2.0772   2.2770   0.00    0.0
2023/11/29 11:07:21.000   12.546412679   76.934060902   591.2839   5  30   3.2377   3.1057   8.8885   1.3132   2.0774   2.2773   0.00    0.0
2023/11/29 11:07:22.000   12.546420918   76.934066259   591.3849   5  30   3.2375   3.1058   8.8890   1.3132   2.0776   2.2775   0.00    0.0
2023/11/29 11:07:23.000   12.546425670   76.934063887   590.0755   5  30   3.2374   3.1058   8.8895   1.3132   2.0778   2.2777   0.00    0.0
2023/11/29 11:07:24.000   12.546431982   76.934064832   594.6685   5  30   3.2373   3.1058   8.8900   1.3131   2.0781   2.2779   0.00    0.0
2023/11/29 11:07:25.000   12.546431720   76.934061352   591.8035   5  30   3.2371   3.1058   8.8905   1.3131   2.0783   2.2782   0.00    0.0
2023/11/29 11:07:26.000   12.546439165   76.934060507   592.5412   5  30   3.2370   3.1058   8.8910   1.3130   2.0785   2.2784   0.00    0.0
2023/11/29 11:07:27.000   12.546447691   76.934057579   591.4147   5  30   3.2369   3.1058   8.8915   1.3130   2.0787   2.2786   0.00    0.0
2023/11/29 11:07:28.000   12.546458542   76.934049989   590.4689   5  30   3.2367   3.1058   8.8920   1.3130   2.0790   2.2789   0.00    0.0
2023/11/29 11:07:29.000   12.546468072   76.934029949   589.6649   5  30   3.2366   3.1059   8.8925   1.3129   2.0792   2.2791   0.00    0.0
2023/11/29 11:07:30.000   12.546471592   76.933996185   592.5503   5  30   3.2365   3.1059   8.8930   1.3129   2.0794   2.2793   0.00    0.0
2023/11/29 11:07:31.000   12.546460777   76.933952995   589.8506   5  30   3.2364   3.1059   8.8935   1.3128   2.0797   2.2795   0.00    0.0
2023/11/29 11:07:32.000   12.546457251   76.933907247   589.6179   5  30   3.2362   3.1059   8.8941   1.3128   2.0799   2.2798   0.00    0.0
2023/11/29 11:07:33.000   12.546448043   76.933862571   590.7673   5  30   3.2361   3.1059   8.8946   1.3128   2.0801   2.2800   0.00    0.0
2023/11/29 11:07:34.000   12.546437348   76.933809551   589.8745   5  30   3.2360   3.1059   8.8951   1.3127   2.0804   2.2802   0.00    0.0
2023/11/29 11:07:35.000   12.546426021   76.933742923   590.0656   5  30   3.2358   3.1059   8.8956   1.3127   2.0806   2.2804   0.00    0.0
2023/11/29 11:07:36.000   12.546409488   76.933660241   590.1105   5  30   3.2357   3.1060   8.8961   1.3126   2.0809   2.2807   0.00    0.0
2023/11/29 11:07:37.000   12.546392172   76.933577113   589.0086   5  30   3.2356   3.1060   8.8966   1.3126   2.0811   2.2809   0.00    0.0
2023/11/29 11:07:38.000   12.546379758   76.933492043   589.9244   5  30   3.2354   3.1060   8.8971   1.3126   2.0813   2.2811   0.00    0.0
2023/11/29 11:07:39.000   12.546362862   76.933393801   588.2582   5  30   3.2353   3.1060   8.8976   1.3125   2.0816   2.2814   0.00    0.0
2023/11/29 11:07:40.000   12.546352402   76.933281911   589.4870   5  30   3.2352   3.1060   8.8981   1.3125   2.0818   2.2816   0.00    0.0
2023/11/29 11:07:41.000   12.546336567   76.933155152   589.9171   5  30   3.2351   3.1061   8.8986   1.3124   2.0821   2.2818   0.00    0.0
2023/11/29 11:07:42.000   12.546315875   76.933011480   591.3371   5  30   3.2349   3.1061   8.8991   1.3124   2.0823   2.2820   0.00    0.0
2023/11/29 11:07:43.000   12.546290851   76.932862203   591.8934   5  30   3.2348   3.1061   8.8996   1.3124   2.0826   2.2823   0.00    0.0
2023/11/29 11:07:44.000   12.546261436   76.932717920   591.9422   5  30   3.2347   3.1061   8.9001   1.3123   2.0829   2.2825   0.00    0.0
2023/11/29 11:07:45.000   12.546233536   76.932563604   592.5904   5  30   3.2346   3.1061   8.9006   1.3123   2.0831   2.2827   0.00    0.0
2023/11/29 11:07:46.000   12.546206780   76.932398583   592.5681   5  30   3.2344   3.1061   8.9011   1.3123   2.0834   2.2830   0.00    0.0
2023/11/29 11:07:47.000   12.546183539   76.932215597   592.0281   5  30   3.2343   3.1062   8.9016   1.3122   2.0836   2.2832   0.00    0.0
2023/11/29 11:07:48.000   12.546161972   76.932027188   592.8977   5  30   3.2342   3.1062   8.9021   1.3122   2.0839   2.2834   0.00    0.0
2023/11/29 11:07:49.000   12.546139607   76.931822498   591.3595   5  30   3.2340   3.1062   8.9026   1.3122   2.0842   2.2836   0.00    0.0
2023/11/29 11:07:50.000   12.546121647   76.931613711   591.2696   5  30   3.2339   3.1062   8.9031   1.3121   2.0844   2.2839   0.00    0.0
2023/11/29 11:07:51.000   12.546116396   76.931395139   594.8546   5  30   3.2338   3.1062   8.9036   1.3121   2.0847   2.2841   0.00    0.0
2023/11/29 11:07:52.000   12.546108101   76.931176063   595.2158   5  30   3.2337   3.1063   8.9041   1.3121   2.0850   2.2843   0.00    0.0
2023/11/29 11:07:53.000   12.546098664   76.930962236   595.6642   5  30   3.2335   3.1063   8.9046   1.3121   2.0852   2.2845   0.00    0.0
2023/11/29 11:07:54.000   12.546099941   76.930744270   595.9903   5  29   3.4329   3.1841   9.4107   1.5900   2.5451   2.9547   0.00    0.0
2023/11/29 11:07:55.000   12.546102219   76.930523483   596.2680   5  29   3.4328   3.1841   9.4112   1.5900   2.5454   2.9548   0.00    0.0
2023/11/29 11:07:56.000   12.546114180   76.930297730   597.5596   5  29   3.4327   3.1841   9.4117   1.5900   2.5457   2.9550   0.00    0.0
2023/11/29 11:07:57.000   12.546128546   76.930066096   598.0379   5  29   3.4326   3.1842   9.4122   1.5900   2.5459   2.9552   0.00    0.0
2023/11/29 11:07:58.000   12.546143917   76.929831254   596.2218   5  30   3.2329   3.1064   8.9071   1.3119   2.0866   2.2856   0.00    0.0
2023/11/29 11:07:59.000   12.546168443   76.929583070   595.6367   5  30   3.2328   3.1064   8.9076   1.3119   2.0869   2.2858   0.00    0.0
2023/11/29 11:08:00.000   12.546208182   76.929330192   596.3411   5  30   3.2327   3.1064   8.9081   1.3118   2.0871   2.2860   0.00    0.0
2023/11/29 11:08:01.000   12.546254957   76.929070972   596.4537   5  30   3.2325   3.1065   8.9086   1.3118   2.0874   2.2862   0.00    0.0
2023/11/29 11:08:02.000   12.546309524   76.928803342   597.0497   5  30   3.2324   3.1065   8.9090   1.3118   2.0877   2.2864   0.00    0.0
2023/11/29 11:08:03.000   12.546367606   76.928532180   598.0881   5  30   3.2323   3.1065   8.9095   1.3117   2.0880   2.2866   0.00    0.0
2023/11/29 11:08:04.000   12.546428029   76.928257425   598.5364   5  30   3.2321   3.1065   8.9100   1.3117   2.0883   2.2868   0.00    0.0
2023/11/29 11:08:05.000   12.546491687   76.927988896   596.5445   5  30   3.2320   3.1066   8.9105   1.3117   2.0885   2.2870   0.00    0.0
2023/11/29 11:08:06.000   12.546561622   76.927712809   597.2173   5  29   3.2660   3.1419   9.0332   1.3935   1.9150   2.1293   0.00    0.0
2023/11/29 11:08:07.000   12.546629710   76.927426239   597.1989   5  28   3.4665   3.2209   9.5246   1.6629   2.4098   2.8360   0.00    0.0
2023/11/29 11:08:08.000   12.546703573   76.927133282   596.9487   5  28   3.4663   3.2209   9.5251   1.6628   2.4102   2.8362   0.00    0.0
2023/11/29 11:08:09.000   12.546784237   76.926831313   596.3827   5  30   3.2621   3.1812   9.1739   1.5397   2.4866   2.5454   0.00    0.0
2023/11/29 11:08:10.000   12.546858422   76.926536232   598.7573   5  30   3.2620   3.1812   9.1741   1.5396   2.4867   2.5454   0.00    0.0
2023/11/29 11:08:11.000   12.546924150   76.926239855   595.3180   5  29   3.4311   3.1847   9.4189   1.5901   2.5499   2.9577   0.00    0.0
2023/11/29 11:08:12.000   12.546997415   76.925952551   596.1326   5  29   3.4310   3.1848   9.4193   1.5901   2.5501   2.9578   0.00    0.0
2023/11/29 11:08:13.000   12.547060321   76.925669764   596.1600   5  29   3.4309   3.1848   9.4198   1.5901   2.5504   2.9580   0.00    0.0
2023/11/29 11:08:14.000   12.547127951   76.925387053   594.7342   5  29   3.3585   3.2362   9.0149   1.5761   2.4594   2.6089   0.00    0.0
2023/11/29 11:08:15.000   12.547191836   76.925111325   592.6522   5  29   3.3584   3.2363   9.0153   1.5761   2.4598   2.6090   0.00    0.0
2023/11/29 11:08:16.000   12.547258649   76.924842097   593.2178   5  29   3.3583   3.2363   9.0157   1.5762   2.4601   2.6092   0.00    0.0
2023/11/29 11:08:17.000   12.547324822   76.924575611   593.8598   5  29   3.3582   3.2364   9.0161   1.5762   2.4604   2.6093   0.00    0.0
2023/11/29 11:08:18.000   12.547386018   76.924297099   591.2970   5  30   3.1974   3.2307   8.8018   1.5121   2.3827   2.1914   0.00    0.0
2023/11/29 11:08:19.000   12.547428021   76.924018529   592.8508   5  30   3.1973   3.2307   8.8020   1.5121   2.3829   2.1914   0.00    0.0
2023/11/29 11:08:20.000   12.547463163   76.923721226   590.1594   5  30   3.1972   3.2308   8.8021   1.5120   2.3831   2.1913   0.00    0.0
2023/11/29 11:08:21.000   12.547486338   76.923410570   587.9356   5  29   3.2843   3.2732   8.8082   1.6373   2.3476   2.1353   0.00    0.0
2023/11/29 11:08:22.000   12.547496673   76.923099831   588.7485   5  28   3.3209   3.3670   9.0176   1.5138   2.6526   1.8992   0.00    0.0
2023/11/29 11:08:23.000   12.547488987   76.922782908   586.4942   5  28   3.3208   3.3670   9.0178   1.5137   2.6527   1.8990   0.00    0.0
2023/11/29 11:08:24.000   12.547469947   76.922466004   585.0239   5  30   3.0718   3.2355   8.9988   1.0577   2.6202   1.8506   0.00    0.0
2023/11/29 11:08:25.000   12.547443391   76.922137433   585.6834   5  30   3.0718   3.2356   8.9990   1.0577   2.6205   1.8508   0.00    0.0
2023/11/29 11:08:26.000   12.547396290   76.921816973   584.4201   5  30   3.0717   3.2356   8.9992   1.0577   2.6208   1.8510   0.00    0.0
2023/11/29 11:08:27.000   12.547334710   76.921498689   581.6188   5  30   3.0716   3.2357   8.9993   1.0577   2.6211   1.8512   0.00    0.0
2023/11/29 11:08:28.000   12.547264705   76.921178535   581.6073   5  30   3.0716   3.2357   8.9995   1.0576   2.6215   1.8514   0.00    0.0
2023/11/29 11:08:29.000   12.547174202   76.920858399   581.3680   5  30   3.0982   3.2744   9.3757   1.1801   2.9246   2.4541   0.00    0.0
2023/11/29 11:08:30.000   12.547075222   76.920529744   582.2373   5  30   3.0981   3.2744   9.3761   1.1801   2.9250   2.4545   0.00    0.0
2023/11/29 11:08:31.000   12.546966812   76.920201276   579.9717   5  29   3.1892   3.3155   9.3780   1.3366   2.9104   2.4288   0.00    0.0
2023/11/29 11:08:32.000   12.546867068   76.919867814   580.2050   5  29   3.1892   3.3155   9.3784   1.3365   2.9108   2.4291   0.00    0.0
2023/11/29 11:08:33.000   12.546775131   76.919524363   580.3969   5  29   3.1891   3.3155   9.3788   1.3364   2.9111   2.4293   0.00    0.0
2023/11/29 11:08:34.000   12.546681683   76.919182478   580.4496   5  30   3.0979   3.2746   9.3777   1.1801   2.9266   2.4559   0.00    0.0
2023/11/29 11:08:35.000   12.546586002   76.918852776   580.6126   5  31   2.9355   3.2114   9.0007   0.8711   2.6232   1.8512   0.00    0.0
2023/11/29 11:08:36.000   12.546496132   76.918516458   579.1486   5  31   2.9355   3.2115   9.0009   0.8711   2.6235   1.8515   0.00    0.0
2023/11/29 11:08:37.000   12.546410319   76.918201064   580.6822   5  31   2.9354   3.2115   9.0010   0.8711   2.6239   1.8517   0.00    0.0
2023/11/29 11:08:38.000   12.546335229   76.917874296   580.3376   5  31   2.9354   3.2116   9.0012   0.8710   2.6242   1.8520   0.00    0.0
2023/11/29 11:08:39.000   12.546261534   76.917557640   583.4236   5  31   2.9353   3.2116   9.0014   0.8710   2.6245   1.8522   0.00    0.0
2023/11/29 11:08:40.000   12.546191852   76.917237121   582.4835   5  31   2.9353   3.2116   9.0015   0.8710   2.6249   1.8525   0.00    0.0
2023/11/29 11:08:41.000   12.546124943   76.916921354   581.4190   5  31   2.9352   3.2117   9.0017   0.8709   2.6252   1.8527   0.00    0.0
2023/11/29 11:08:42.000   12.546062426   76.916600602   581.5994   5  30   2.9858   3.2162   9.4499   0.8161   2.5313   2.2376   0.00    0.0
2023/11/29 11:08:43.000   12.546000710   76.916286663   582.0586   5  31   2.9351   3.2118   9.0020   0.8708   2.6259   1.8532   0.00    0.0
2023/11/29 11:08:44.000   12.545940839   76.915967859   581.4314   5  31   2.9351   3.2118   9.0022   0.8708   2.6262   1.8535   0.00    0.0
2023/11/29 11:08:45.000   12.545889831   76.915644524   579.9005   5  31   2.9350   3.2118   9.0024   0.8708   2.6265   1.8537   0.00    0.0
2023/11/29 11:08:46.000   12.545840712   76.915305619   579.2734   5  31   2.9350   3.2119   9.0025   0.8707   2.6269   1.8540   0.00    0.0
2023/11/29 11:08:47.000   12.545793120   76.914975487   578.0125   5  31   2.9349   3.2119   9.0027   0.8707   2.6272   1.8542   0.00    0.0
2023/11/29 11:08:48.000   12.545753830   76.914625504   577.8400   5  31   2.9349   3.2120   9.0028   0.8707   2.6275   1.8544   0.00    0.0
2023/11/29 11:08:49.000   12.545711289   76.914280904   577.3835   5  31   2.9348   3.2120   9.0030   0.8706   2.6279   1.8547   0.00    0.0
2023/11/29 11:08:50.000   12.545669824   76.913933240   575.6954   5  31   2.9348   3.2121   9.0032   0.8706   2.6282   1.8549   0.00    0.0
2023/11/29 11:08:51.000   12.545635006   76.913585783   575.1078   5  31   2.9347   3.2121   9.0033   0.8705   2.6285   1.8552   0.00    0.0
2023/11/29 11:08:52.000   12.545600568   76.913244143   575.8123   5  31   2.9347   3.2121   9.0035   0.8705   2.6289   1.8554   0.00    0.0
2023/11/29 11:08:53.000   12.545560314   76.912911424   575.5773   5  31   2.9346   3.2122   9.0037   0.8705   2.6292   1.8556   0.00    0.0
2023/11/29 11:08:54.000   12.545524680   76.912575421   574.2452   5  31   2.9346   3.2122   9.0038   0.8704   2.6295   1.8559   0.00    0.0
2023/11/29 11:08:55.000   12.545485990   76.912250883   574.9490   5  31   2.9345   3.2123   9.0040   0.8704   2.6299   1.8561   0.00    0.0
2023/11/29 11:08:56.000   12.545452290   76.911923028   574.1558   5  31   2.9345   3.2123   9.0041   0.8704   2.6302   1.8563   0.00    0.0
2023/11/29 11:08:57.000   12.545419096   76.911594310   574.2381   5  31   2.9344   3.2123   9.0043   0.8703   2.6305   1.8566   0.00    0.0
2023/11/29 11:08:58.000   12.545384668   76.911262877   574.7600   5  31   2.9344   3.2124   9.0044   0.8703   2.6309   1.8568   0.00    0.0
2023/11/29 11:08:59.000   12.545354218   76.910921743   574.7556   5  31   2.9343   3.2124   9.0046   0.8702   2.6312   1.8570   0.00    0.0
2023/11/29 11:09:00.000   12.545318041   76.910580147   575.0567   5  31   2.9343   3.2125   9.0048   0.8702   2.6315   1.8573   0.00    0.0
2023/11/29 11:09:01.000   12.545282190   76.910236123   574.1758   5  31   2.9342   3.2125   9.0049   0.8702   2.6319   1.8575   0.00    0.0
2023/11/29 11:09:02.000   12.545246505   76.909895583   573.7137   5  31   2.9341   3.2126   9.0051   0.8701   2.6322   1.8577   0.00    0.0
2023/11/29 11:09:03.000   12.545210550   76.909554237   574.0155   5  31   2.9341   3.2126   9.0052   0.8701   2.6325   1.8580   0.00    0.0
2023/11/29 11:09:04.000   12.545174509   76.909211907   573.9364   5  31   2.9340   3.2126   9.0054   0.8700   2.6329   1.8582   0.00    0.0
2023/11/29 11:09:05.000   12.545135798   76.908864852   573.2280   5  31   2.9340   3.2127   9.0055   0.8700   2.6332   1.8584   0.00    0.0
2023/11/29 11:09:06.000   12.545096314   76.908522025   573.2537   5  31   2.9339   3.2127   9.0057   0.8700   2.6335   1.8587   0.00    0.0
2023/11/29 11:09:07.000   12.545058859   76.908178447   573.8821   5  31   2.9339   3.2128   9.0058   0.8699   2.6338   1.8589   0.00    0.0
2023/11/29 11:09:08.000   12.545018825   76.907838876   574.0267   5  31   2.9338   3.2128   9.0060   0.8699   2.6342   1.8591   0.00    0.0
2023/11/29 11:09:09.000   12.544979094   76.907505094   573.6252   5  31   2.9338   3.2128   9.0061   0.8699   2.6345   1.8594   0.00    0.0
2023/11/29 11:09:10.000   12.544935805   76.907170823   573.2356   5  31   2.9337   3.2129   9.0063   0.8698   2.6348   1.8596   0.00    0.0
2023/11/29 11:09:11.000   12.544892806   76.906838051   574.8928   5  31   2.9337   3.2129   9.0064   0.8698   2.6352   1.8598   0.00    0.0
2023/11/29 11:09:12.000   12.544856092   76.906493313   574.0510   5  31   2.9336   3.2130   9.0066   0.8697   2.6355   1.8600   0.00    0.0
2023/11/29 11:09:13.000   12.544810227   76.906150651   575.3308   5  31   2.9336   3.2130   9.0067   0.8697   2.6358   1.8603   0.00    0.0
2023/11/29 11:09:14.000   12.544767536   76.905803090   576.0605   5  30   2.9842   3.2174   9.4559   0.8152   2.5431   2.2446   0.00    0.0
2023/11/29 11:09:15.000   12.544727020   76.905443922   574.0793   5  31   2.9335   3.2131   9.0070   0.8696   2.6365   1.8607   0.00    0.0
2023/11/29 11:09:16.000   12.544686150   76.905088109   574.6901   5  31   2.9334   3.2131   9.0072   0.8696   2.6368   1.8610   0.00    0.0
2023/11/29 11:09:17.000   12.544646012   76.904725100   574.0961   5  31   2.9334   3.2132   9.0073   0.8695   2.6371   1.8612   0.00    0.0
2023/11/29 11:09:18.000   12.544604103   76.904355944   575.3526   5  31   2.9333   3.2132   9.0075   0.8695   2.6375   1.8614   0.00    0.0
2023/11/29 11:09:19.000   12.544564152   76.903985587   572.9686   5  31   2.9333   3.2133   9.0076   0.8695   2.6378   1.8617   0.00    0.0
2023/11/29 11:09:20.000   12.544526034   76.903614866   575.9526   5  31   2.9332   3.2133   9.0077   0.8694   2.6381   1.8619   0.00    0.0
2023/11/29 11:09:21.000   12.544484281   76.903246396   575.1683   5  31   2.9332   3.2134   9.0079   0.8694   2.6385   1.8621   0.00    0.0
2023/11/29 11:09:22.000   12.544443538   76.902871260   575.7236   5  31   2.9331   3.2134   9.0080   0.8694   2.6388   1.8623   0.00    0.0
2023/11/29 11:09:23.000   12.544405755   76.902495774   576.3532   5  31   2.9331   3.2134   9.0082   0.8693   2.6391   1.8626   0.00    0.0
2023/11/29 11:09:24.000   12.544363704   76.902123731   577.1273   5  31   2.9330   3.2135   9.0083   0.8693   2.6395   1.8628   0.00    0.0
2023/11/29 11:09:25.000   12.544321991   76.901746424   578.7700   5  31   2.9330   3.2135   9.0084   0.8693   2.6398   1.8630   0.00    0.0
2023/11/29 11:09:26.000   12.544279859   76.901369037   576.3708   5  31   2.9329   3.2136   9.0086   0.8692   2.6401   1.8632   0.00    0.0
2023/11/29 11:09:27.000   12.544236245   76.900989752   576.9231   5  31   2.9329   3.2136   9.0087   0.8692   2.6405   1.8635   0.00    0.0
2023/11/29 11:09:28.000   12.544197638   76.900607540   579.5470   5  31   2.9328   3.2137   9.0089   0.8691   2.6408   1.8637   0.00    0.0
2023/11/29 11:09:29.000   12.544162692   76.900227272   579.7600   5  31   2.9328   3.2137   9.0090   0.8691   2.6411   1.8639   0.00    0.0
2023/11/29 11:09:30.000   12.544127987   76.899843204   581.1373   5  31   2.9327   3.2137   9.0091   0.8691   2.6414   1.8641   0.00    0.0
2023/11/29 11:09:31.000   12.544083819   76.899463691   581.2837   5  31   2.9327   3.2138   9.0093   0.8690   2.6418   1.8644   0.00    0.0
2023/11/29 11:09:32.000   12.544040233   76.899086312   582.4201   5  31   2.9326   3.2138   9.0094   0.8690   2.6421   1.8646   0.00    0.0
2023/11/29 11:09:33.000   12.544006315   76.898711686   585.3108   5  31   2.9326   3.2139   9.0095   0.8690   2.6424   1.8648   0.00    0.0
2023/11/29 11:09:34.000   12.543965934   76.898339125   584.6802   5  31   2.9325   3.2139   9.0097   0.8689   2.6428   1.8650   0.00    0.0
2023/11/29 11:09:35.000   12.543927107   76.897985658   586.0352   5  31   2.9325   3.2140   9.0098   0.8689   2.6431   1.8653   0.00    0.0
2023/11/29 11:09:36.000   12.543897382   76.897651567   586.2279   5  31   2.9324   3.2140   9.0100   0.8688   2.6434   1.8655   0.00    0.0
2023/11/29 11:09:37.000   12.543862772   76.897329613   585.7204   5  31   2.9324   3.2140   9.0101   0.8688   2.6437   1.8657   0.00    0.0
2023/11/29 11:09:38.000   12.543828711   76.897017681   588.2702   5  31   2.9323   3.2141   9.0102   0.8688   2.6440   1.8659   0.00    0.0
2023/11/29 11:09:39.000   12.543797449   76.896706735   588.3877   5  31   2.9323   3.2141   9.0104   0.8687   2.6444   1.8661   0.00    0.0
2023/11/29 11:09:40.000   12.543766640   76.896399568   588.8787   5  31   2.9322   3.2142   9.0105   0.8687   2.6447   1.8663   0.00    0.0
2023/11/29 11:09:41.000   12.543737089   76.896102152   589.1107   5  31   2.9322   3.2142   9.0106   0.8686   2.6450   1.8666   0.00    0.0
2023/11/29 11:09:42.000   12.543714198   76.895799632   587.9314   5  31   2.9321   3.2142   9.0107   0.8686   2.6453   1.8668   0.00    0.0
2023/11/29 11:09:43.000   12.543690890   76.895506020   588.4359   5  31   2.9321   3.2143   9.0109   0.8685   2.6456   1.8670   0.00    0.0
2023/11/29 11:09:44.000   12.543672357   76.895200475   588.2177   5  31   2.9320   3.2143   9.0110   0.8685   2.6459   1.8672   0.00    0.0
2023/11/29 11:09:45.000   12.543649779   76.894897204   589.2579   5  31   2.9320   3.2144   9.0111   0.8685   2.6462   1.8674   0.00    0.0
2023/11/29 11:09:46.000   12.543633061   76.894588571   588.9385   5  31   2.9319   3.2144   9.0113   0.8684   2.6465   1.8676   0.00    0.0
2023/11/29 11:09:47.000   12.543627572   76.894271329   587.4710   5  31   2.9319   3.2144   9.0114   0.8684   2.6469   1.8678   0.00    0.0
2023/11/29 11:09:48.000   12.543623134   76.893962823   588.8492   5  31   2.9318   3.2145   9.0115   0.8683   2.6472   1.8680   0.00    0.0
2023/11/29 11:09:49.000   12.543621243   76.893649298   587.7867   5  31   2.9318   3.2145   9.0117   0.8683   2.6475   1.8682   0.00    0.0
2023/11/29 11:09:50.000   12.543622837   76.893333577   585.9031   5  31   2.9317   3.2146   9.0118   0.8682   2.6478   1.8684   0.00    0.0
2023/11/29 11:09:51.000   12.543629163   76.893026190   586.2332   5  31   2.9317   3.2146   9.0119   0.8682   2.6481   1.8686   0.00    0.0
2023/11/29 11:09:52.000   12.543644705   76.892724721   588.1691   5  31   2.9316   3.2146   9.0120   0.8681   2.6484   1.8688   0.00    0.0
2023/11/29 11:09:53.000   12.543662977   76.892416501   587.5133   5  31   2.9316   3.2147   9.0122   0.8681   2.6487   1.8690   0.00    0.0
2023/11/29 11:09:54.000   12.543690046   76.892108734   587.3314   5  31   2.9315   3.2147   9.0123   0.8681   2.6490   1.8692   0.00    0.0
2023/11/29 11:09:55.000   12.543722479   76.891801433   585.8753   5  31   2.9315   3.2148   9.0124   0.8680   2.6494   1.8694   0.00    0.0
2023/11/29 11:09:56.000   12.543758024   76.891492640   587.0541   5  31   2.9314   3.2148   9.0125   0.8680   2.6497   1.8696   0.00    0.0
2023/11/29 11:09:57.000   12.543789250   76.891189845   587.5291   5  31   2.9314   3.2148   9.0127   0.8679   2.6500   1.8698   0.00    0.0
2023/11/29 11:09:58.000   12.543830044   76.890889896   588.5816   5  31   2.9313   3.2149   9.0128   0.8679   2.6503   1.8699   0.00    0.0
2023/11/29 11:09:59.000   12.543875580   76.890593449   588.6367   5  31   2.9313   3.2149   9.0129   0.8678   2.6506   1.8701   0.00    0.0
2023/11/29 11:10:00.000   12.543923871   76.890299793   587.4958   5  31   2.9312   3.2150   9.0130   0.8678   2.6509   1.8703   0.00    0.0
2023/11/29 11:10:01.000   12.543975924   76.890014398   587.6732   5  31   2.9312   3.2150   9.0132   0.8677   2.6512   1.8705   0.00    0.0
2023/11/29 11:10:02.000   12.544036980   76.889737722   589.2532   5  31   2.9311   3.2150   9.0133   0.8677   2.6515   1.8707   0.00    0.0
2023/11/29 11:10:03.000   12.544095871   76.889473964   589.0647   5  31   2.9311   3.2151   9.0134   0.8676   2.6518   1.8708   0.00    0.0
2023/11/29 11:10:04.000   12.544148482   76.889218962   589.9382   5  31   2.9310   3.2151   9.0135   0.8676   2.6521   1.8710   0.00    0.0
2023/11/29 11:10:05.000   12.544214503   76.888966301   589.1489   5  31   2.9310   3.2151   9.0137   0.8675   2.6524   1.8712   0.00    0.0
2023/11/29 11:10:06.000   12.544286051   76.888710539   591.4531   5  31   2.9309   3.2152   9.0138   0.8675   2.6527   1.8714   0.00    0.0
2023/11/29 11:10:07.000   12.544374185   76.888485316   604.4538   5  31   2.9309   3.2152   9.0139   0.8674   2.6530   1.8715   0.00    0.0
2023/11/29 11:10:08.000   12.544443281   76.888180763   591.1479   5  31   2.9308   3.2153   9.0140   0.8673   2.6533   1.8717   0.00    0.0
2023/11/29 11:10:09.000   12.544525910   76.887901668   587.4180   5  31   2.9308   3.2153   9.0141   0.8673   2.6536   1.8719   0.00    0.0
2023/11/29 11:10:10.000   12.544613857   76.887622260   588.9352   5  31   2.9307   3.2153   9.0143   0.8672   2.6539   1.8720   0.00    0.0
2023/11/29 11:10:11.000   12.544700359   76.887345900   588.7024   5  31   2.9306   3.2154   9.0144   0.8672   2.6542   1.8722   0.00    0.0
2023/11/29 11:10:12.000   12.544792394   76.887063337   588.6442   5  31   2.9306   3.2154   9.0145   0.8671   2.6545   1.8723   0.00    0.0
2023/11/29 11:10:13.000   12.544876407   76.886775584   586.4324   5  31   2.9305   3.2155   9.0146   0.8671   2.6548   1.8725   0.00    0.0
2023/11/29 11:10:14.000   12.544968773   76.886478377   587.5869   5  31   2.9305   3.2155   9.0147   0.8670   2.6551   1.8727   0.00    0.0
2023/11/29 11:10:15.000   12.545049560   76.886184045   586.8542   5  31   2.9304   3.2155   9.0149   0.8670   2.6554   1.8728   0.00    0.0
2023/11/29 11:10:16.000   12.545132562   76.885881887   587.3202   5  31   2.9304   3.2156   9.0150   0.8669   2.6557   1.8730   0.00    0.0
2023/11/29 11:10:17.000   12.545211520   76.885567903   584.9969   5  31   2.9303   3.2156   9.0151   0.8669   2.6560   1.8732   0.00    0.0
2023/11/29 11:10:18.000   12.545281465   76.885257449   585.1544   5  31   2.9303   3.2157   9.0152   0.8668   2.6563   1.8733   0.00    0.0
2023/11/29 11:10:19.000   12.545344895   76.884945288   586.0323   5  31   2.9302   3.2157   9.0153   0.8668   2.6566   1.8735   0.00    0.0
2023/11/29 11:10:20.000   12.545401656   76.884635257   584.0921   5  31   2.9302   3.2157   9.0154   0.8667   2.6569   1.8737   0.00    0.0
2023/11/29 11:10:21.000   12.545456156   76.884325369   584.5937   5  31   2.9301   3.2158   9.0155   0.8667   2.6573   1.8738   0.00    0.0
2023/11/29 11:10:22.000   12.545504912   76.884014995   584.9832   5  31   2.9301   3.2158   9.0157   0.8666   2.6576   1.8740   0.00    0.0
2023/11/29 11:10:23.000   12.545543886   76.883699561   583.9695   5  31   2.9300   3.2158   9.0158   0.8666   2.6579   1.8742   0.00    0.0
2023/11/29 11:10:24.000   12.545584102   76.883380564   586.0842   5  31   2.9300   3.2159   9.0159   0.8665   2.6582   1.8744   0.00    0.0
2023/11/29 11:10:25.000   12.545616546   76.883064994   586.8354   5  31   2.9299   3.2159   9.0160   0.8665   2.6585   1.8745   0.00    0.0
2023/11/29 11:10:26.000   12.545640601   76.882752960   587.1768   5  31   2.9299   3.2160   9.0161   0.8664   2.6588   1.8747   0.00    0.0
2023/11/29 11:10:27.000   12.545653171   76.882444449   586.9300   5  31   2.9298   3.2160   9.0162   0.8664   2.6591   1.8749   0.00    0.0
2023/11/29 11:10:28.000   12.545664169   76.882140196   586.1803   5  31   2.9298   3.2160   9.0163   0.8663   2.6594   1.8751   0.00    0.0
2023/11/29 11:10:29.000   12.545672788   76.881837502   586.2708   5  31   2.9297   3.2161   9.0164   0.8663   2.6597   1.8753   0.00    0.0
2023/11/29 11:10:30.000   12.545679101   76.881540787   588.6372   5  31   2.9297   3.2161   9.0165   0.8662   2.6600   1.8754   0.00    0.0
2023/11/29 11:10:31.000   12.545673997   76.881237983   587.8912   5  31   2.9296   3.2162   9.0166   0.8662   2.6603   1.8756   0.00    0.0
2023/11/29 11:10:32.000   12.545663593   76.880938046   587.8899   5  31   2.9296   3.2162   9.0167   0.8661   2.6606   1.8758   0.00    0.0
2023/11/29 11:10:33.000   12.545655469   76.880643857   588.6680   5  31   2.9295   3.2162   9.0168   0.8661   2.6609   1.8760   0.00    0.0
2023/11/29 11:10:34.000   12.545641789   76.880351069   590.3320   5  31   2.9295   3.2163   9.0169   0.8660   2.6612   1.8762   0.00    0.0
2023/11/29 11:10:35.000   12.545627511   76.880048953   588.6842   5  31   2.9294   3.2163   9.0170   0.8660   2.6615   1.8764   0.00    0.0
2023/11/29 11:10:36.000   12.545617610   76.879738434   590.3600   5  31   2.9294   3.2164   9.0171   0.8660   2.6618   1.8766   0.00    0.0
2023/11/29 11:10:37.000   12.545593605   76.879425977   589.2518   5  31   2.9293   3.2164   9.0172   0.8659   2.6621   1.8768   0.00    0.0
2023/11/29 11:10:38.000   12.545561620   76.879105682   588.7932   5  31   2.9293   3.2164   9.0173   0.8659   2.6624   1.8770   0.00    0.0
2023/11/29 11:10:39.000   12.545523134   76.878781537   588.8691   5  31   2.9292   3.2165   9.0174   0.8658   2.6627   1.8772   0.00    0.0
2023/11/29 11:10:40.000   12.545475404   76.878460365   589.6138   5  31   2.9292   3.2165   9.0175   0.8658   2.6630   1.8774   0.00    0.0
2023/11/29 11:10:41.000   12.545420603   76.878132932   587.9759   5  31   2.9292   3.2166   9.0176   0.8657   2.6633   1.8776   0.00    0.0
2023/11/29 11:10:42.000   12.545360486   76.877806273   589.0628   5  31   2.9291   3.2166   9.0177   0.8657   2.6636   1.8778   0.00    0.0
2023/11/29 11:10:43.000   12.545289114   76.877476093   586.2045   5  31   2.9291   3.2166   9.0178   0.8657   2.6639   1.8780   0.00    0.0
2023/11/29 11:10:44.000   12.545218157   76.877138819   585.9951   5  31   2.9290   3.2167   9.0179   0.8656   2.6642   1.8782   0.00    0.0
2023/11/29 11:10:45.000   12.545137266   76.876802149   587.0581   5  31   2.9290   3.2167   9.0180   0.8656   2.6645   1.8784   0.00    0.0
2023/11/29 11:10:46.000   12.545052920   76.876459717   586.9479   5  31   2.9289   3.2168   9.0181   0.8655   2.6648   1.8786   0.00    0.0
2023/11/29 11:10:47.000   12.544952780   76.876120623   586.6081   5  31   2.9289   3.2168   9.0181   0.8655   2.6651   1.8788   0.00    0.0
2023/11/29 11:10:48.000   12.544850959   76.875774911   586.4017   5  31   2.9288   3.2168   9.0182   0.8655   2.6654   1.8790   0.00    0.0
2023/11/29 11:10:49.000   12.544733922   76.875424963   585.3060   5  31   2.9288   3.2169   9.0183   0.8654   2.6657   1.8792   0.00    0.0
2023/11/29 11:10:50.000   12.544613967   76.875079984   585.9684   5  31   2.9287   3.2169   9.0184   0.8654   2.6660   1.8795   0.00    0.0
2023/11/29 11:10:51.000   12.544486416   76.874737500   586.8995   5  31   2.9287   3.2170   9.0185   0.8654   2.6663   1.8797   0.00    0.0
2023/11/29 11:10:52.000   12.544351952   76.874386620   586.7604   5  31   2.9287   3.2170   9.0186   0.8653   2.6666   1.8799   0.00    0.0
2023/11/29 11:10:53.000   12.544205446   76.874038052   586.7701   5  31   2.9286   3.2170   9.0187   0.8653   2.6669   1.8801   0.00    0.0
2023/11/29 11:10:54.000   12.544055676   76.873689354   587.4022   5  31   2.9286   3.2171   9.0187   0.8653   2.6672   1.8804   0.00    0.0
2023/11/29 11:10:55.000   12.543900808   76.873343734   586.8779   5  31   2.9285   3.2171   9.0188   0.8652   2.6675   1.8806   0.00    0.0
2023/11/29 11:10:56.000   12.543737312   76.873005726   587.9898   5  31   2.9285   3.2172   9.0189   0.8652   2.6677   1.8808   0.00    0.0
2023/11/29 11:10:57.000   12.543571026   76.872675595   589.5928   5  31   2.9284   3.2172   9.0190   0.8652   2.6680   1.8810   0.00    0.0
2023/11/29 11:10:58.000   12.543395418   76.872350815   589.6631   5  31   2.9284   3.2172   9.0191   0.8651   2.6683   1.8813   0.00    0.0
2023/11/29 11:10:59.000   12.543214177   76.872036888   590.6673   5  31   2.9283   3.2173   9.0191   0.8651   2.6686   1.8815   0.00    0.0
2023/11/29 11:11:00.000   12.543027404   76.871725314   592.2374   5  31   2.9283   3.2173   9.0192   0.8651   2.6689   1.8818   0.00    0.0
2023/11/29 11:11:01.000   12.542841899   76.871419210   594.1349   5  31   2.9283   3.2174   9.0193   0.8650   2.6692   1.8820   0.00    0.0
2023/11/29 11:11:02.000   12.542648911   76.871122870   593.0266   5  31   2.9282   3.2174   9.0194   0.8650   2.6695   1.8822   0.00    0.0
2023/11/29 11:11:03.000   12.542460625   76.870841524   593.2374   5  31   2.9282   3.2174   9.0194   0.8650   2.6698   1.8825   0.00    0.0
2023/11/29 11:11:04.000   12.542273972   76.870576430   593.8220   5  31   2.9281   3.2175   9.0195   0.8649   2.6701   1.8827   0.00    0.0
2023/11/29 11:11:05.000   12.542085410   76.870320641   593.7596   5  31   2.9281   3.2175   9.0196   0.8649   2.6703   1.8829   0.00    0.0
2023/11/29 11:11:06.000   12.541892424   76.870066047   594.5893   5  31   2.9280   3.2176   9.0197   0.8649   2.6706   1.8832   0.00    0.0
2023/11/29 11:11:07.000   12.541701562   76.869806511   593.4511   5  31   2.9280   3.2176   9.0197   0.8648   2.6709   1.8834   0.00    0.0
2023/11/29 11:11:08.000   12.541502676   76.869555734   594.1943   5  31   2.9280   3.2176   9.0198   0.8648   2.6712   1.8837   0.00    0.0
2023/11/29 11:11:09.000   12.541295183   76.869307607   592.5093   5  31   2.9279   3.2177   9.0199   0.8648   2.6715   1.8839   0.00    0.0
2023/11/29 11:11:10.000   12.541081550   76.869067605   592.1178   5  31   2.9279   3.2177   9.0199   0.8647   2.6717   1.8841   0.00    0.0
2023/11/29 11:11:11.000   12.540864957   76.868820804   590.5058   5  31   2.9278   3.2177   9.0200   0.8647   2.6720   1.8844   0.00    0.0
2023/11/29 11:11:12.000   12.540638402   76.868574455   588.8652   5  31   2.9278   3.2178   9.0201   0.8647   2.6723   1.8846   0.00    0.0
2023/11/29 11:11:13.000   12.540408424   76.868341099   588.8171   5  31   2.9277   3.2178   9.0201   0.8647   2.6726   1.8849   0.00    0.0
2023/11/29 11:11:14.000   12.540182509   76.868113329   590.6600   5  31   2.9277   3.2178   9.0202   0.8646   2.6728   1.8851   0.00    0.0
2023/11/29 11:11:15.000   12.539954221   76.867903715   589.9658   5  31   2.9277   3.2179   9.0203   0.8646   2.6731   1.8854   0.00    0.0
2023/11/29 11:11:16.000   12.539731203   76.867694801   590.6169   5  31   2.9276   3.2179   9.0203   0.8646   2.6734   1.8856   0.00    0.0
2023/11/29 11:11:17.000   12.539508229   76.867501240   592.1213   5  31   2.9276   3.2179   9.0204   0.8645   2.6736   1.8859   0.00    0.0
2023/11/29 11:11:18.000   12.539280816   76.867309671   592.0126   5  31   2.9275   3.2180   9.0205   0.8645   2.6739   1.8861   0.00    0.0
2023/11/29 11:11:19.000   12.539052895   76.867111334   591.5090   5  31   2.9275   3.2180   9.0205   0.8645   2.6742   1.8863   0.00    0.0
2023/11/29 11:11:20.000   12.538815357   76.866918104   592.3469   5  31   2.9274   3.2180   9.0206   0.8644   2.6744   1.8866   0.00    0.0
2023/11/29 11:11:21.000   12.538578203   76.866736353   592.3070   5  31   2.9274   3.2181   9.0207   0.8644   2.6747   1.8868   0.00    0.0
2023/11/29 11:11:22.000   12.538336822   76.866555799   593.5139   5  31   2.9273   3.2181   9.0207   0.8644   2.6750   1.8871   0.00    0.0
2023/11/29 11:11:23.000   12.538090649   76.866368682   593.4477   5  31   2.9273   3.2181   9.0208   0.8643   2.6752   1.8873   0.00    0.0
2023/11/29 11:11:24.000   12.537831947   76.866188373   592.1304   5  31   2.9273   3.2182   9.0208   0.8643   2.6755   1.8876   0.00    0.0
2023/11/29 11:11:25.000   12.537579118   76.866009026   592.8094   5  31   2.9272   3.2182   9.0209   0.8643   2.6757   1.8878   0.00    0.0
2023/11/29 11:11:26.000   12.537319311   76.865825707   594.4599   5  31   2.9272   3.2182   9.0210   0.8642   2.6760   1.8881   0.00    0.0
2023/11/29 11:11:27.000   12.537043808   76.865641359   592.0849   5  31   2.9271   3.2183   9.0210   0.8642   2.6763   1.8883   0.00    0.0
2023/11/29 11:11:28.000   12.536758279   76.865473746   594.3299   5  31   2.9271   3.2183   9.0211   0.8642   2.6765   1.8886   0.00    0.0
2023/11/29 11:11:29.000   12.536472641   76.865300762   592.8129   5  31   2.9270   3.2183   9.0211   0.8641   2.6768   1.8889   0.00    0.0
2023/11/29 11:11:30.000   12.536173631   76.865131165   592.5062   5  31   2.9270   3.2184   9.0212   0.8641   2.6770   1.8891   0.00    0.0
2023/11/29 11:11:31.000   12.535866074   76.864969845   593.2942   5  31   2.9270   3.2184   9.0212   0.8641   2.6773   1.8894   0.00    0.0
2023/11/29 11:11:32.000   12.535552640   76.864807413   592.9427   5  30   2.9781   3.2225   9.4737   0.8111   2.5890   2.2717   0.00    0.0
2023/11/29 11:11:33.000   12.535228301   76.864659386   592.8269   5  31   2.9269   3.2185   9.0213   0.8640   2.6778   1.8899   0.00    0.0
2023/11/29 11:11:34.000   12.534904605   76.864508085   594.8210   5  31   2.9268   3.2185   9.0214   0.8640   2.6780   1.8902   0.00    0.0
2023/11/29 11:11:35.000   12.534580036   76.864365982   596.7916   5  30   2.9780   3.2226   9.4739   0.8111   2.5898   2.2724   0.00    0.0
2023/11/29 11:11:36.000   12.534244397   76.864234075   595.8079   5  31   2.9268   3.2186   9.0215   0.8639   2.6785   1.8907   0.00    0.0
2023/11/29 11:11:37.000   12.533917148   76.864100366   598.0932   5  31   2.9267   3.2186   9.0215   0.8639   2.6788   1.8910   0.00    0.0
2023/11/29 11:11:38.000   12.533580350   76.863979459   597.9850   5  31   2.9267   3.2186   9.0216   0.8639   2.6790   1.8913   0.00    0.0
2023/11/29 11:11:39.000   12.533242250   76.863868596   600.4594   5  30   2.9778   3.2227   9.4742   0.8110   2.5909   2.2735   0.00    0.0
2023/11/29 11:11:40.000   12.532915735   76.863762750   601.3632   5  31   2.9266   3.2187   9.0217   0.8638   2.6795   1.8918   0.00    0.0
2023/11/29 11:11:41.000   12.532589300   76.863664050   604.3772   5  30   2.9778   3.2227   9.4744   0.8109   2.5914   2.2740   0.00    0.0
2023/11/29 11:11:42.000   12.532269786   76.863587385   602.9051   5  31   2.9265   3.2187   9.0218   0.8638   2.6800   1.8923   0.00    0.0
2023/11/29 11:11:43.000   12.531963215   76.863512333   602.3663   5  31   2.9265   3.2188   9.0218   0.8637   2.6802   1.8926   0.00    0.0
2023/11/29 11:11:44.000   12.531679518   76.863440510   603.8409   5  31   2.9264   3.2188   9.0219   0.8637   2.6805   1.8929   0.00    0.0
2023/11/29 11:11:45.000   12.531393077   76.863376080   603.8845   5  31   2.9264   3.2188   9.0219   0.8636   2.6807   1.8931   0.00    0.0
2023/11/29 11:11:46.000   12.531101377   76.863313837   604.1176   5  31   2.9263   3.2189   9.0220   0.8636   2.6809   1.8934   0.00    0.0
2023/11/29 11:11:47.000   12.530799315   76.863266594   604.3145   5  31   2.9263   3.2189   9.0220   0.8636   2.6812   1.8936   0.00    0.0
2023/11/29 11:11:48.000   12.530500729   76.863203949   602.9788   5  31   2.9263   3.2189   9.0221   0.8635   2.6814   1.8939   0.00    0.0
2023/11/29 11:11:49.000   12.530199241   76.863178839   612.7693   5  31   2.9262   3.2189   9.0221   0.8635   2.6816   1.8941   0.00    0.0
2023/11/29 11:11:50.000   12.529880702   76.863126283   607.4861   5  31   2.9262   3.2190   9.0221   0.8635   2.6819   1.8944   0.00    0.0
2023/11/29 11:11:51.000   12.529568894   76.863083537   606.9562   5  30   2.9403   3.3684   9.7015   1.0155   3.2759   2.1488   0.00    0.0
2023/11/29 11:11:52.000   12.529261949   76.863053525   606.2700   5  31   2.9261   3.2190   9.0222   0.8634   2.6823   1.8949   0.00    0.0
2023/11/29 11:11:53.000   12.528956790   76.863015671   606.8642   5  31   2.9260   3.2191   9.0223   0.8634   2.6825   1.8952   0.00    0.0
2023/11/29 11:11:54.000   12.528652589   76.862972514   607.3141   5  31   2.9260   3.2191   9.0223   0.8633   2.6828   1.8954   0.00    0.0
2023/11/29 11:11:55.000   12.528346179   76.862931588   606.9892   5  31   2.9260   3.2191   9.0224   0.8633   2.6830   1.8957   0.00    0.0
2023/11/29 11:11:56.000   12.528031869   76.862897704   605.5561   5  31   2.9259   3.2191   9.0224   0.8633   2.6832   1.8959   0.00    0.0
2023/11/29 11:11:57.000   12.527713223   76.862862762   606.5410   5  31   2.9259   3.2192   9.0224   0.8632   2.6835   1.8962   0.00    0.0
2023/11/29 11:11:58.000   12.527393549   76.862826872   606.7916   5  31   2.9258   3.2192   9.0225   0.8632   2.6837   1.8964   0.00    0.0
2023/11/29 11:11:59.000   12.527071708   76.862779406   606.6373   5  31   2.9258   3.2192   9.0225   0.8632   2.6839   1.8967   0.00    0.0
2023/11/29 11:12:00.000   12.526747043   76.862731871   605.3083   5  31   2.9257   3.2192   9.0225   0.8631   2.6841   1.8969   0.00    0.0
2023/11/29 11:12:01.000   12.526430873   76.862684829   604.8788   5  31   2.9257   3.2193   9.0226   0.8631   2.6844   1.8972   0.00    0.0
2023/11/29 11:12:02.000   12.526122840   76.862642757   603.7874   5  31   2.9257   3.2193   9.0226   0.8631   2.6846   1.8974   0.00    0.0
2023/11/29 11:12:03.000   12.525817900   76.862609335   603.3532   5  31   2.9256   3.2193   9.0226   0.8630   2.6848   1.8977   0.00    0.0
2023/11/29 11:12:04.000   12.525516964   76.862563586   602.1403   5  31   2.9256   3.2193   9.0227   0.8630   2.6850   1.8979   0.00    0.0
2023/11/29 11:12:05.000   12.525212077   76.862524367   601.8168   5  31   2.9255   3.2194   9.0227   0.8629   2.6853   1.8982   0.00    0.0
2023/11/29 11:12:06.000   12.524916484   76.862472758   603.3149   5  31   2.9255   3.2194   9.0227   0.8629   2.6855   1.8984   0.00    0.0
2023/11/29 11:12:07.000   12.524619550   76.862417495   605.2949   5  31   2.9254   3.2194   9.0228   0.8629   2.6857   1.8987   0.00    0.0
2023/11/29 11:12:08.000   12.524328967   76.862346377   603.7738   5  31   2.9254   3.2195   9.0228   0.8628   2.6859   1.8989   0.00    0.0
2023/11/29 11:12:09.000   12.524049884   76.862276728   604.5222   5  31   2.9254   3.2195   9.0228   0.8628   2.6862   1.8992   0.00    0.0
2023/11/29 11:12:10.000   12.523780282   76.862203038   604.1103   5  31   2.9253   3.2195   9.0229   0.8628   2.6864   1.8994   0.00    0.0
2023/11/29 11:12:11.000   12.523514902   76.862125812   604.7499   5  31   2.9253   3.2195   9.0229   0.8627   2.6866   1.8996   0.00    0.0
2023/11/29 11:12:12.000   12.523251808   76.862042460   604.7417   5  31   2.9252   3.2196   9.0229   0.8627   2.6869   1.8999   0.00    0.0
2023/11/29 11:12:13.000   12.522974559   76.861966474   605.1005   5  31   2.9252   3.2196   9.0230   0.8626   2.6871   1.9001   0.00    0.0
2023/11/29 11:12:14.000   12.522692608   76.861887766   605.1868   5  31   2.9251   3.2196   9.0230   0.8626   2.6873   1.9003   0.00    0.0
2023/11/29 11:12:15.000   12.522403242   76.861804957   604.8215   5  31   2.9251   3.2197   9.0230   0.8626   2.6875   1.9006   0.00    0.0
2023/11/29 11:12:16.000   12.522107565   76.861727325   605.3906   5  31   2.9251   3.2197   9.0231   0.8625   2.6878   1.9008   0.00    0.0
2023/11/29 11:12:17.000   12.521806283   76.861654651   606.5333   5  31   2.9250   3.2197   9.0231   0.8625   2.6880   1.9011   0.00    0.0
2023/11/29 11:12:18.000   12.521499903   76.861576596   605.8726   5  31   2.9250   3.2197   9.0231   0.8625   2.6882   1.9013   0.00    0.0
2023/11/29 11:12:19.000   12.521201631   76.861498707   608.1287   5  31   2.9249   3.2198   9.0231   0.8624   2.6885   1.9016   0.00    0.0
2023/11/29 11:12:20.000   12.520919016   76.861418761   606.9116   5  31   2.9249   3.2198   9.0232   0.8624   2.6887   1.9018   0.00    0.0
2023/11/29 11:12:21.000   12.520649576   76.861344373   606.8891   5  31   2.9249   3.2198   9.0232   0.8624   2.6889   1.9020   0.00    0.0
2023/11/29 11:12:22.000   12.520386234   76.861273261   608.1645   5  31   2.9248   3.2198   9.0232   0.8623   2.6891   1.9022   0.00    0.0
2023/11/29 11:12:23.000   12.520130627   76.861191647   607.6317   5  31   2.9248   3.2199   9.0232   0.8623   2.6894   1.9025   0.00    0.0
2023/11/29 11:12:24.000   12.519870786   76.861110326   607.5983   5  31   2.9247   3.2199   9.0232   0.8622   2.6896   1.9027   0.00    0.0
2023/11/29 11:12:25.000   12.519626216   76.861006234   609.5252   5  30   2.9419   3.2455   9.0415   0.9343   2.7328   1.9503   0.00    0.0
2023/11/29 11:12:26.000   12.519383170   76.860890416   612.2880   5  31   2.9246   3.2200   9.0233   0.8622   2.6900   1.9031   0.00    0.0
2023/11/29 11:12:27.000   12.519134456   76.860763756   607.7166   5  31   2.9246   3.2200   9.0233   0.8621   2.6903   1.9034   0.00    0.0
2023/11/29 11:12:28.000   12.518900992   76.860629470   607.8849   5  31   2.9246   3.2200   9.0233   0.8621   2.6905   1.9036   0.00    0.0
2023/11/29 11:12:29.000   12.518668493   76.860482710   608.5403   5  31   2.9245   3.2201   9.0234   0.8620   2.6907   1.9038   0.00    0.0
2023/11/29 11:12:30.000   12.518435634   76.860335424   607.5284   5  31   2.9245   3.2201   9.0234   0.8620   2.6910   1.9040   0.00    0.0
2023/11/29 11:12:31.000   12.518209672   76.860172764   608.9826   5  31   2.9244   3.2201   9.0234   0.8620   2.6912   1.9042   0.00    0.0
2023/11/29 11:12:32.000   12.517984526   76.860005819   605.6143   5  31   2.9244   3.2201   9.0234   0.8619   2.6915   1.9044   0.00    0.0
2023/11/29 11:12:33.000   12.517777272   76.859835485   605.9161   5  31   2.9244   3.2202   9.0234   0.8619   2.6917   1.9046   0.00    0.0
2023/11/29 11:12:34.000   12.517568326   76.859649573   606.8873   5  31   2.9243   3.2202   9.0235   0.8619   2.6919   1.9048   0.00    0.0
2023/11/29 11:12:35.000   12.517360935   76.859457948   607.3053   5  31   2.9243   3.2202   9.0235   0.8618   2.6922   1.9051   0.00    0.0
2023/11/29 11:12:36.000   12.517166989   76.859249789   605.7008   5  31   2.9242   3.2203   9.0235   0.8618   2.6924   1.9053   0.00    0.0
2023/11/29 11:12:37.000   12.516974637   76.859032792   605.2005   5  31   2.9242   3.2203   9.0235   0.8617   2.6927   1.9055   0.00    0.0
2023/11/29 11:12:38.000   12.516786811   76.858810598   603.1253   5  31   2.9242   3.2203   9.0235   0.8617   2.6929   1.9057   0.00    0.0
2023/11/29 11:12:39.000   12.516609089   76.858571468   601.9514   5  31   2.9241   3.2204   9.0235   0.8617   2.6932   1.9058   0.00    0.0
2023/11/29 11:12:40.000   12.516440377   76.858322005   603.8556   5  31   2.9241   3.2204   9.0235   0.8616   2.6934   1.9060   0.00    0.0
2023/11/29 11:12:41.000   12.516274368   76.858057110   603.4217   5  31   2.9240   3.2204   9.0236   0.8616   2.6937   1.9062   0.00    0.0
2023/11/29 11:12:42.000   12.516112671   76.857788423   601.8189   5  31   2.9240   3.2205   9.0236   0.8615   2.6939   1.9064   0.00    0.0
2023/11/29 11:12:43.000   12.515953145   76.857502900   599.7402   5  31   2.9239   3.2205   9.0236   0.8615   2.6942   1.9066   0.00    0.0
2023/11/29 11:12:44.000   12.515793602   76.857211762   599.8995   5  31   2.9239   3.2206   9.0236   0.8615   2.6944   1.9068   0.00    0.0
2023/11/29 11:12:45.000   12.515637854   76.856911142   601.0897   5  31   2.9239   3.2206   9.0236   0.8614   2.6947   1.9070   0.00    0.0
2023/11/29 11:12:46.000   12.515471394   76.856611111   601.1793   5  31   2.9238   3.2206   9.0236   0.8614   2.6949   1.9072   0.00    0.0
2023/11/29 11:12:47.000   12.515315026   76.856293480   601.3983   5  31   2.9238   3.2207   9.0236   0.8613   2.6952   1.9074   0.00    0.0
2023/11/29 11:12:48.000   12.515151200   76.855989125   603.6261   5  31   2.9238   3.2207   9.0236   0.8613   2.6955   1.9075   0.00    0.0
2023/11/29 11:12:49.000   12.514994124   76.855676716   602.4383   5  31   2.9237   3.2207   9.0237   0.8613   2.6957   1.9077   0.00    0.0
2023/11/29 11:12:50.000   12.514844495   76.855382779   604.3968   5  31   2.9237   3.2208   9.0237   0.8612   2.6960   1.9079   0.00    0.0
2023/11/29 11:12:51.000   12.514699683   76.855106283   604.3291   5  31   2.9236   3.2208   9.0237   0.8612   2.6962   1.9081   0.00    0.0
2023/11/29 11:12:52.000   12.514571937   76.854838829   604.6183   5  31   2.9236   3.2208   9.0237   0.8611   2.6965   1.9083   0.00    0.0
2023/11/29 11:12:53.000   12.514452993   76.854584981   605.7774   5  31   2.9235   3.2209   9.0237   0.8611   2.6967   1.9084   0.00    0.0
2023/11/29 11:12:54.000   12.514338516   76.854339986   607.8986   5  31   2.9235   3.2209   9.0237   0.8610   2.6970   1.9086   0.00    0.0
