% obs start : 2023/11/29 03:46:47.0 GPST (week2290 272807.0s)
% obs end   : 2023/11/29 06:31:00.0 GPST (week2290 282660.0s)
% pos mode  : Single
% elev mask : 5.0 deg
% ionos opt : Broadcast
% tropo opt : Saastamoinen
% ephemeris : Broadcast
% navi sys  : GPS Galileo QZSS BDS NavIC
%
% (lat/lon/height=WGS84/ellipsoidal,Q=1:fix,2:float,3:sbas,4:dgps,5:single,6:ppp,ns=# of satellites)
%  GPST                  latitude(deg) longitude(deg)  height(m)   Q  ns   sdn(m)   sde(m)   sdu(m)  sdne(m)  sdeu(m)  sdun(m) age(s)  ratio
2023/11/29 04:55:24.000   12.782473171   77.370738591   650.2689   5  32   2.7527   2.9917   7.0566  -0.3042   1.5260   1.6311   0.00    0.0
2023/11/29 04:55:25.000   12.782406809   77.370671364   650.5835   5  32   2.7528   2.9918   7.0569  -0.3043   1.5261   1.6313   0.00    0.0
2023/11/29 04:55:26.000   12.782340614   77.370604250   650.8721   5  32   2.7528   2.9919   7.0572  -0.3044   1.5261   1.6315   0.00    0.0
2023/11/29 04:55:27.000   12.782267993   77.370527858   650.2391   5  32   2.7529   2.9920   7.0575  -0.3046   1.5261   1.6316   0.00    0.0
2023/11/29 04:55:28.000   12.782194063   77.370450328   647.0411   5  32   2.7530   2.9921   7.0578  -0.3047   1.5261   1.6318   0.00    0.0
2023/11/29 04:55:29.000   12.782101007   77.370398593   655.4893   5  32   2.7530   2.9922   7.0581  -0.3048   1.5262   1.6319   0.00    0.0
2023/11/29 04:55:30.000   12.782019832   77.370301149   652.3590   5  32   2.7531   2.9923   7.0584  -0.3050   1.5262   1.6321   0.00    0.0
2023/11/29 04:55:31.000   12.781941416   77.370239082   650.6784   5  32   2.7532   2.9923   7.0587  -0.3051   1.5262   1.6323   0.00    0.0
2023/11/29 04:55:32.000   12.781852335   77.370166633   649.3088   5  32   2.7532   2.9924   7.0590  -0.3052   1.5262   1.6324   0.00    0.0
2023/11/29 04:55:33.000   12.781762441   77.370088059   649.3136   5  32   2.7533   2.9925   7.0593  -0.3053   1.5263   1.6326   0.00    0.0
2023/11/29 04:55:34.000   12.781667623   77.370001064   650.1136   5  32   2.7533   2.9926   7.0596  -0.3055   1.5263   1.6327   0.00    0.0
2023/11/29 04:55:35.000   12.781563849   77.369916721   651.1608   5  32   2.7534   2.9927   7.0599  -0.3056   1.5263   1.6329   0.00    0.0
2023/11/29 04:55:36.000   12.781469905   77.369823126   650.6573   5  32   2.7535   2.9928   7.0602  -0.3057   1.5263   1.6331   0.00    0.0
2023/11/29 04:55:37.000   12.781361285   77.369721278   651.3131   5  32   2.7535   2.9929   7.0605  -0.3059   1.5264   1.6332   0.00    0.0
2023/11/29 04:55:38.000   12.781255537   77.369619424   652.6326   5  32   2.7536   2.9930   7.0608  -0.3060   1.5264   1.6334   0.00    0.0
2023/11/29 04:55:39.000   12.781149032   77.369522499   652.8678   5  32   2.7536   2.9930   7.0611  -0.3061   1.5264   1.6336   0.00    0.0
2023/11/29 04:55:40.000   12.781048156   77.369405128   651.3518   5  32   2.7537   2.9931   7.0614  -0.3062   1.5264   1.6337   0.00    0.0
2023/11/29 04:55:41.000   12.780930993   77.369303219   649.5232   5  31   2.8721   3.0149   7.4504   0.4475   1.7850   2.1465   0.00    0.0
2023/11/29 04:55:42.000   12.780825761   77.369186002   651.5287   5  32   2.7538   2.9933   7.0620  -0.3065   1.5265   1.6340   0.00    0.0
2023/11/29 04:55:43.000   12.780716592   77.369056830   651.1303   5  32   2.7539   2.9934   7.0623  -0.3066   1.5265   1.6342   0.00    0.0
2023/11/29 04:55:44.000   12.780609318   77.368915257   651.4274   5  32   2.7540   2.9935   7.0626  -0.3067   1.5266   1.6344   0.00    0.0
2023/11/29 04:55:45.000   12.780500108   77.368786370   649.7040   5  32   2.7540   2.9936   7.0629  -0.3069   1.5266   1.6345   0.00    0.0
2023/11/29 04:55:46.000   12.780383904   77.368647747   650.3239   5  32   2.7541   2.9937   7.0632  -0.3070   1.5266   1.6347   0.00    0.0
2023/11/29 04:55:47.000   12.780277146   77.368504239   648.9516   5  32   2.7541   2.9938   7.0635  -0.3071   1.5266   1.6349   0.00    0.0
2023/11/29 04:55:48.000   12.780163632   77.368356943   649.8285   5  32   2.7542   2.9938   7.0638  -0.3073   1.5267   1.6350   0.00    0.0
2023/11/29 04:55:49.000   12.780063939   77.368195506   649.3186   5  32   2.7543   2.9939   7.0641  -0.3074   1.5267   1.6352   0.00    0.0
2023/11/29 04:55:50.000   12.779964360   77.368029779   648.3138   5  32   2.7543   2.9940   7.0644  -0.3075   1.5267   1.6353   0.00    0.0
2023/11/29 04:55:51.000   12.779867542   77.367859298   648.8356   5  32   2.7544   2.9941   7.0647  -0.3076   1.5268   1.6355   0.00    0.0
2023/11/29 04:55:52.000   12.779773167   77.367684212   648.5976   5  32   2.7544   2.9942   7.0650  -0.3078   1.5268   1.6357   0.00    0.0
2023/11/29 04:55:53.000   12.779688906   77.367511629   647.3463   5  32   2.7545   2.9943   7.0653  -0.3079   1.5268   1.6358   0.00    0.0
2023/11/29 04:55:54.000   12.779586550   77.367340817   649.5475   5  32   2.7546   2.9944   7.0655  -0.3080   1.5269   1.6360   0.00    0.0
2023/11/29 04:55:55.000   12.779496302   77.367157730   650.4185   5  32   2.7546   2.9945   7.0658  -0.3081   1.5269   1.6361   0.00    0.0
2023/11/29 04:55:56.000   12.779405056   77.366978497   649.8791   5  32   2.7547   2.9945   7.0661  -0.3083   1.5270   1.6363   0.00    0.0
2023/11/29 04:55:57.000   12.779308915   77.366801258   650.3669   5  32   2.7548   2.9946   7.0664  -0.3084   1.5270   1.6364   0.00    0.0
2023/11/29 04:55:58.000   12.779219131   77.366620030   650.6972   5  32   2.7548   2.9947   7.0667  -0.3085   1.5270   1.6366   0.00    0.0
2023/11/29 04:55:59.000   12.779127152   77.366440271   651.1167   5  32   2.7549   2.9948   7.0670  -0.3086   1.5271   1.6367   0.00    0.0
2023/11/29 04:56:00.000   12.779026995   77.366260764   652.0030   5  32   2.7549   2.9949   7.0673  -0.3088   1.5271   1.6369   0.00    0.0
2023/11/29 04:56:01.000   12.778937762   77.366082937   652.3037   5  32   2.7550   2.9950   7.0676  -0.3089   1.5271   1.6371   0.00    0.0
2023/11/29 04:56:02.000   12.778842603   77.365895596   654.8991   5  32   2.7551   2.9951   7.0679  -0.3090   1.5272   1.6372   0.00    0.0
2023/11/29 04:56:03.000   12.778745237   77.365709253   653.2385   5  32   2.7551   2.9952   7.0682  -0.3091   1.5272   1.6374   0.00    0.0
2023/11/29 04:56:04.000   12.778647395   77.365516928   654.2311   5  32   2.7552   2.9952   7.0685  -0.3092   1.5272   1.6375   0.00    0.0
2023/11/29 04:56:05.000   12.778549534   77.365338787   654.5708   5  32   2.7552   2.9953   7.0687  -0.3094   1.5273   1.6377   0.00    0.0
2023/11/29 04:56:06.000   12.778452313   77.365143773   656.4502   5  32   2.7553   2.9954   7.0690  -0.3095   1.5273   1.6378   0.00    0.0
2023/11/29 04:56:07.000   12.778349907   77.364956638   655.7102   5  32   2.7554   2.9955   7.0693  -0.3096   1.5273   1.6380   0.00    0.0
2023/11/29 04:56:08.000   12.778252922   77.364772977   656.2837   5  32   2.7554   2.9956   7.0696  -0.3097   1.5274   1.6381   0.00    0.0
2023/11/29 04:56:09.000   12.778158444   77.364591843   656.2637   5  32   2.7555   2.9957   7.0699  -0.3099   1.5274   1.6383   0.00    0.0
2023/11/29 04:56:10.000   12.778066866   77.364406444   656.7595   5  32   2.7555   2.9958   7.0702  -0.3100   1.5274   1.6385   0.00    0.0
2023/11/29 04:56:11.000   12.777968853   77.364230505   657.5158   5  32   2.7556   2.9959   7.0705  -0.3101   1.5275   1.6386   0.00    0.0
2023/11/29 04:56:12.000   12.777870508   77.364052140   657.5988   5  32   2.7557   2.9959   7.0708  -0.3103   1.5275   1.6388   0.00    0.0
2023/11/29 04:56:13.000   12.777775079   77.363877372   657.9773   5  32   2.7557   2.9960   7.0710  -0.3104   1.5275   1.6389   0.00    0.0
2023/11/29 04:56:14.000   12.777676503   77.363695507   658.1683   5  32   2.7558   2.9961   7.0713  -0.3105   1.5276   1.6391   0.00    0.0
2023/11/29 04:56:15.000   12.777575357   77.363509080   657.2464   5  32   2.7559   2.9962   7.0716  -0.3106   1.5276   1.6392   0.00    0.0
2023/11/29 04:56:16.000   12.777467337   77.363336808   658.2012   5  32   2.7559   2.9963   7.0719  -0.3108   1.5276   1.6394   0.00    0.0
2023/11/29 04:56:17.000   12.777365815   77.363151841   657.6023   5  32   2.7560   2.9964   7.0722  -0.3109   1.5277   1.6395   0.00    0.0
2023/11/29 04:56:18.000   12.777270517   77.362962707   658.2463   5  32   2.7560   2.9965   7.0725  -0.3110   1.5277   1.6397   0.00    0.0
2023/11/29 04:56:19.000   12.777167254   77.362775570   660.5067   5  32   2.7561   2.9966   7.0728  -0.3111   1.5277   1.6398   0.00    0.0
2023/11/29 04:56:20.000   12.777074904   77.362587726   659.2306   5  32   2.7562   2.9966   7.0731  -0.3113   1.5278   1.6400   0.00    0.0
2023/11/29 04:56:21.000   12.776982574   77.362392983   659.0498   5  32   2.7562   2.9967   7.0733  -0.3114   1.5278   1.6401   0.00    0.0
2023/11/29 04:56:22.000   12.776884661   77.362196982   660.2708   5  32   2.7563   2.9968   7.0736  -0.3115   1.5279   1.6403   0.00    0.0
2023/11/29 04:56:23.000   12.776795145   77.362002076   659.5790   5  31   2.7748   3.0347   7.3171  -0.4999   1.7967   1.4466   0.00    0.0
2023/11/29 04:56:24.000   12.776703222   77.361817853   663.7940   5  32   2.7564   2.9970   7.0742  -0.3118   1.5279   1.6406   0.00    0.0
2023/11/29 04:56:25.000   12.776608390   77.361612932   665.5772   5  32   2.7565   2.9971   7.0745  -0.3119   1.5280   1.6408   0.00    0.0
2023/11/29 04:56:26.000   12.776522161   77.361410226   664.7367   5  32   2.7565   2.9972   7.0748  -0.3120   1.5280   1.6409   0.00    0.0
2023/11/29 04:56:27.000   12.776427088   77.361203664   664.8565   5  32   2.7566   2.9973   7.0750  -0.3121   1.5280   1.6411   0.00    0.0
2023/11/29 04:56:28.000   12.776332870   77.360979900   661.6158   5  31   2.7752   3.0352   7.3185  -0.5004   1.7971   1.4475   0.00    0.0
2023/11/29 04:56:29.000   12.776237962   77.360777373   660.7040   5  32   2.7567   2.9974   7.0756  -0.3124   1.5281   1.6414   0.00    0.0
2023/11/29 04:56:30.000   12.776139735   77.360559116   659.4659   5  32   2.7568   2.9975   7.0759  -0.3125   1.5281   1.6415   0.00    0.0
2023/11/29 04:56:31.000   12.776039922   77.360359115   658.9485   5  32   2.7568   2.9976   7.0762  -0.3126   1.5282   1.6417   0.00    0.0
2023/11/29 04:56:32.000   12.775937285   77.360154909   660.3816   5  32   2.7569   2.9977   7.0765  -0.3128   1.5282   1.6418   0.00    0.0
2023/11/29 04:56:33.000   12.775837943   77.359954693   659.7504   5  32   2.7570   2.9978   7.0767  -0.3129   1.5282   1.6420   0.00    0.0
2023/11/29 04:56:34.000   12.775735458   77.359762658   661.6105   5  32   2.7570   2.9979   7.0770  -0.3130   1.5283   1.6421   0.00    0.0
2023/11/29 04:56:35.000   12.775632967   77.359560815   662.5901   5  32   2.7571   2.9980   7.0773  -0.3131   1.5283   1.6423   0.00    0.0
2023/11/29 04:56:36.000   12.775528547   77.359373756   663.2114   5  32   2.7572   2.9980   7.0776  -0.3133   1.5283   1.6424   0.00    0.0
2023/11/29 04:56:37.000   12.775426913   77.359188118   662.8231   5  32   2.7572   2.9981   7.0779  -0.3134   1.5284   1.6426   0.00    0.0
2023/11/29 04:56:38.000   12.775314580   77.359000948   663.3183   5  32   2.7573   2.9982   7.0782  -0.3135   1.5284   1.6427   0.00    0.0
2023/11/29 04:56:39.000   12.775198258   77.358817605   663.7386   5  32   2.7573   2.9983   7.0784  -0.3137   1.5284   1.6429   0.00    0.0
2023/11/29 04:56:40.000   12.775074539   77.358655032   671.3576   5  32   2.7574   2.9984   7.0787  -0.3138   1.5285   1.6430   0.00    0.0
2023/11/29 04:56:41.000   12.774980183   77.358448129   663.6592   5  32   2.7575   2.9985   7.0790  -0.3139   1.5285   1.6432   0.00    0.0
2023/11/29 04:56:42.000   12.774870373   77.358266863   664.3644   5  32   2.7575   2.9986   7.0793  -0.3140   1.5285   1.6433   0.00    0.0
2023/11/29 04:56:43.000   12.774758624   77.358087458   665.8417   5  32   2.7576   2.9987   7.0796  -0.3142   1.5285   1.6435   0.00    0.0
2023/11/29 04:56:44.000   12.774650086   77.357905304   665.9316   5  32   2.7577   2.9987   7.0798  -0.3143   1.5286   1.6436   0.00    0.0
2023/11/29 04:56:45.000   12.774530850   77.357720767   666.4468   5  32   2.7577   2.9988   7.0801  -0.3144   1.5286   1.6438   0.00    0.0
2023/11/29 04:56:46.000   12.774408942   77.357539732   665.7404   5  32   2.7578   2.9989   7.0804  -0.3145   1.5286   1.6439   0.00    0.0
2023/11/29 04:56:47.000   12.774285594   77.357368262   666.7008   5  32   2.7578   2.9990   7.0807  -0.3147   1.5287   1.6441   0.00    0.0
2023/11/29 04:56:48.000   12.774168341   77.357192926   668.2715   5  32   2.7579   2.9991   7.0810  -0.3148   1.5287   1.6442   0.00    0.0
2023/11/29 04:56:49.000   12.774046185   77.357012918   668.5914   5  32   2.7580   2.9992   7.0812  -0.3149   1.5287   1.6444   0.00    0.0
2023/11/29 04:56:50.000   12.773928270   77.356834333   669.9947   5  32   2.7580   2.9993   7.0815  -0.3151   1.5288   1.6445   0.00    0.0
2023/11/29 04:56:51.000   12.773808050   77.356659906   670.3001   5  32   2.7581   2.9994   7.0818  -0.3152   1.5288   1.6447   0.00    0.0
2023/11/29 04:56:52.000   12.773690940   77.356482553   669.7330   5  32   2.7582   2.9995   7.0821  -0.3153   1.5288   1.6448   0.00    0.0
2023/11/29 04:56:53.000   12.773568659   77.356308944   671.0274   5  32   2.7582   2.9995   7.0824  -0.3154   1.5288   1.6450   0.00    0.0
2023/11/29 04:56:54.000   12.773446744   77.356132083   671.4385   5  32   2.7583   2.9996   7.0826  -0.3156   1.5289   1.6451   0.00    0.0
2023/11/29 04:56:55.000   12.773328391   77.355950160   672.1514   5  32   2.7583   2.9997   7.0829  -0.3157   1.5289   1.6453   0.00    0.0
2023/11/29 04:56:56.000   12.773207433   77.355769829   674.0272   5  32   2.7584   2.9998   7.0832  -0.3158   1.5289   1.6454   0.00    0.0
2023/11/29 04:56:57.000   12.773091631   77.355590153   673.1588   5  32   2.7585   2.9999   7.0835  -0.3160   1.5289   1.6456   0.00    0.0
2023/11/29 04:56:58.000   12.772972149   77.355402990   673.8696   5  32   2.7585   3.0000   7.0838  -0.3161   1.5290   1.6457   0.00    0.0
2023/11/29 04:56:59.000   12.772852459   77.355229513   674.8064   5  32   2.7586   3.0001   7.0840  -0.3162   1.5290   1.6459   0.00    0.0
2023/11/29 04:57:00.000   12.772731461   77.355046693   674.8346   5  32   2.7587   3.0002   7.0843  -0.3163   1.5290   1.6460   0.00    0.0
2023/11/29 04:57:01.000   12.772617530   77.354872411   676.0001   5  32   2.7587   3.0002   7.0846  -0.3165   1.5291   1.6462   0.00    0.0
2023/11/29 04:57:02.000   12.772502852   77.354688684   677.2764   5  32   2.7588   3.0003   7.0849  -0.3166   1.5291   1.6463   0.00    0.0
2023/11/29 04:57:03.000   12.772383814   77.354510932   677.4095   5  32   2.7589   3.0004   7.0851  -0.3167   1.5291   1.6465   0.00    0.0
2023/11/29 04:57:04.000   12.772280643   77.354325255   678.3677   5  32   2.7589   3.0005   7.0854  -0.3169   1.5291   1.6466   0.00    0.0
2023/11/29 04:57:05.000   12.772170239   77.354136700   677.3231   5  32   2.7590   3.0006   7.0857  -0.3170   1.5292   1.6468   0.00    0.0
2023/11/29 04:57:06.000   12.772066520   77.353950660   678.2788   5  32   2.7590   3.0007   7.0860  -0.3171   1.5292   1.6469   0.00    0.0
2023/11/29 04:57:07.000   12.771967088   77.353760277   677.4945   5  32   2.7591   3.0008   7.0862  -0.3172   1.5292   1.6471   0.00    0.0
2023/11/29 04:57:08.000   12.771860301   77.353573428   680.7546   5  32   2.7592   3.0009   7.0865  -0.3174   1.5292   1.6472   0.00    0.0
2023/11/29 04:57:09.000   12.771761766   77.353377405   680.4009   5  32   2.7592   3.0009   7.0868  -0.3175   1.5293   1.6474   0.00    0.0
2023/11/29 04:57:10.000   12.771669800   77.353182029   680.3994   5  32   2.7593   3.0010   7.0871  -0.3176   1.5293   1.6475   0.00    0.0
2023/11/29 04:57:11.000   12.771574325   77.352976641   681.9563   5  32   2.7594   3.0011   7.0873  -0.3178   1.5293   1.6476   0.00    0.0
2023/11/29 04:57:12.000   12.771488861   77.352770706   677.2394   5  32   2.7594   3.0012   7.0876  -0.3179   1.5294   1.6478   0.00    0.0
2023/11/29 04:57:13.000   12.771397582   77.352568655   680.4061   5  32   2.7595   3.0013   7.0879  -0.3180   1.5294   1.6479   0.00    0.0
2023/11/29 04:57:14.000   12.771310444   77.352371021   683.8266   5  32   2.7595   3.0014   7.0882  -0.3181   1.5294   1.6481   0.00    0.0
2023/11/29 04:57:15.000   12.771217504   77.352174630   688.6913   5  32   2.7596   3.0015   7.0884  -0.3183   1.5295   1.6482   0.00    0.0
2023/11/29 04:57:16.000   12.771141087   77.351950687   684.6254   5  32   2.7597   3.0015   7.0887  -0.3184   1.5295   1.6483   0.00    0.0
2023/11/29 04:57:17.000   12.771064416   77.351724146   681.0550   5  32   2.7597   3.0016   7.0890  -0.3185   1.5295   1.6485   0.00    0.0
2023/11/29 04:57:18.000   12.770988695   77.351507734   679.0807   5  32   2.7598   3.0017   7.0893  -0.3187   1.5295   1.6486   0.00    0.0
2023/11/29 04:57:19.000   12.770912300   77.351277486   678.8265   5  32   2.7599   3.0018   7.0895  -0.3188   1.5296   1.6487   0.00    0.0
2023/11/29 04:57:20.000   12.770847179   77.351053093   679.2050   5  32   2.7599   3.0019   7.0898  -0.3189   1.5296   1.6489   0.00    0.0
2023/11/29 04:57:21.000   12.770777846   77.350819874   678.6211   5  32   2.7600   3.0020   7.0901  -0.3190   1.5296   1.6490   0.00    0.0
2023/11/29 04:57:22.000   12.770719603   77.350586913   678.3542   5  32   2.7600   3.0021   7.0903  -0.3192   1.5297   1.6491   0.00    0.0
2023/11/29 04:57:23.000   12.770658361   77.350344033   677.2428   5  32   2.7601   3.0022   7.0906  -0.3193   1.5297   1.6493   0.00    0.0
2023/11/29 04:57:24.000   12.770603353   77.350106146   676.7910   5  32   2.7602   3.0022   7.0909  -0.3194   1.5298   1.6494   0.00    0.0
2023/11/29 04:57:25.000   12.770548307   77.349869585   678.6635   5  32   2.7602   3.0023   7.0911  -0.3196   1.5298   1.6495   0.00    0.0
2023/11/29 04:57:26.000   12.770498587   77.349627580   677.1865   5  32   2.7603   3.0024   7.0914  -0.3197   1.5298   1.6497   0.00    0.0
2023/11/29 04:57:27.000   12.770455033   77.349385613   675.7934   5  32   2.7604   3.0025   7.0917  -0.3198   1.5299   1.6498   0.00    0.0
2023/11/29 04:57:28.000   12.770414428   77.349152714   676.6328   5  32   2.7604   3.0026   7.0920  -0.3200   1.5299   1.6499   0.00    0.0
2023/11/29 04:57:29.000   12.770384957   77.348918041   675.2736   5  32   2.7605   3.0027   7.0922  -0.3201   1.5299   1.6501   0.00    0.0
2023/11/29 04:57:30.000   12.770344176   77.348687916   676.8616   5  32   2.7605   3.0028   7.0925  -0.3202   1.5300   1.6502   0.00    0.0
2023/11/29 04:57:31.000   12.770318235   77.348457446   676.0127   5  32   2.7606   3.0029   7.0928  -0.3203   1.5300   1.6503   0.00    0.0
2023/11/29 04:57:32.000   12.770286546   77.348229901   676.7563   5  32   2.7607   3.0029   7.0930  -0.3205   1.5300   1.6504   0.00    0.0
2023/11/29 04:57:33.000   12.770257205   77.347997948   673.1089   5  32   2.7607   3.0030   7.0933  -0.3206   1.5301   1.6506   0.00    0.0
2023/11/29 04:57:34.000   12.770227905   77.347769578   672.8641   5  32   2.7608   3.0031   7.0936  -0.3207   1.5301   1.6507   0.00    0.0
2023/11/29 04:57:35.000   12.770195749   77.347552712   675.6788   5  32   2.7608   3.0032   7.0938  -0.3209   1.5301   1.6508   0.00    0.0
2023/11/29 04:57:36.000   12.770165066   77.347329511   674.2232   5  32   2.7609   3.0033   7.0941  -0.3210   1.5301   1.6509   0.00    0.0
2023/11/29 04:57:37.000   12.770131430   77.347107584   676.1118   5  32   2.7610   3.0034   7.0944  -0.3211   1.5302   1.6511   0.00    0.0
2023/11/29 04:57:38.000   12.770095862   77.346893166   677.3920   5  32   2.7610   3.0035   7.0946  -0.3213   1.5302   1.6512   0.00    0.0
2023/11/29 04:57:39.000   12.770068801   77.346662338   677.9779   5  32   2.7611   3.0035   7.0949  -0.3214   1.5302   1.6513   0.00    0.0
2023/11/29 04:57:40.000   12.770044147   77.346418013   671.0248   5  32   2.7612   3.0036   7.0952  -0.3215   1.5303   1.6514   0.00    0.0
2023/11/29 04:57:41.000   12.770000251   77.346208788   678.4612   5  32   2.7612   3.0037   7.0954  -0.3217   1.5303   1.6516   0.00    0.0
2023/11/29 04:57:42.000   12.769965974   77.345971237   677.3966   5  32   2.7613   3.0038   7.0957  -0.3218   1.5303   1.6517   0.00    0.0
2023/11/29 04:57:43.000   12.769947844   77.345730498   671.7278   5  31   2.7799   3.0429   7.3380  -0.5093   1.8026   1.4590   0.00    0.0
2023/11/29 04:57:44.000   12.769909532   77.345489774   671.2054   5  32   2.7614   3.0040   7.0962  -0.3221   1.5304   1.6519   0.00    0.0
2023/11/29 04:57:45.000   12.769880553   77.345251041   670.3807   5  32   2.7615   3.0041   7.0965  -0.3222   1.5304   1.6520   0.00    0.0
2023/11/29 04:57:46.000   12.769843908   77.345009517   667.4089   5  32   2.7615   3.0042   7.0968  -0.3223   1.5305   1.6522   0.00    0.0
2023/11/29 04:57:47.000   12.769814510   77.344767921   668.2588   5  32   2.7616   3.0042   7.0970  -0.3225   1.5305   1.6523   0.00    0.0
2023/11/29 04:57:48.000   12.769778775   77.344526374   668.6283   5  32   2.7617   3.0043   7.0973  -0.3226   1.5305   1.6524   0.00    0.0
2023/11/29 04:57:49.000   12.769755271   77.344293716   667.6304   5  32   2.7617   3.0044   7.0975  -0.3227   1.5306   1.6525   0.00    0.0
2023/11/29 04:57:50.000   12.769720326   77.344057427   669.0121   5  32   2.7618   3.0045   7.0978  -0.3229   1.5306   1.6527   0.00    0.0
2023/11/29 04:57:51.000   12.769692646   77.343823815   668.3124   5  32   2.7618   3.0046   7.0981  -0.3230   1.5306   1.6528   0.00    0.0
2023/11/29 04:57:52.000   12.769663265   77.343590619   669.1458   5  32   2.7619   3.0047   7.0983  -0.3231   1.5307   1.6529   0.00    0.0
2023/11/29 04:57:53.000   12.769623971   77.343377885   672.9906   5  32   2.7620   3.0048   7.0986  -0.3233   1.5307   1.6530   0.00    0.0
2023/11/29 04:57:54.000   12.769595126   77.343148649   675.9089   5  32   2.7620   3.0048   7.0989  -0.3234   1.5307   1.6531   0.00    0.0
2023/11/29 04:57:55.000   12.769568097   77.342903726   671.9220   5  32   2.7621   3.0049   7.0991  -0.3235   1.5307   1.6533   0.00    0.0
2023/11/29 04:57:56.000   12.769539774   77.342678658   674.3677   5  32   2.7622   3.0050   7.0994  -0.3237   1.5308   1.6534   0.00    0.0
2023/11/29 04:57:57.000   12.769507018   77.342452902   671.1020   5  31   2.7808   3.0443   7.3415  -0.5110   1.8036   1.4608   0.00    0.0
2023/11/29 04:57:58.000   12.769478325   77.342227946   671.7764   5  32   2.7623   3.0052   7.0999  -0.3239   1.5308   1.6536   0.00    0.0
2023/11/29 04:57:59.000   12.769441567   77.341998773   673.2554   5  32   2.7623   3.0053   7.1002  -0.3241   1.5309   1.6537   0.00    0.0
2023/11/29 04:58:00.000   12.769412522   77.341770983   675.6882   5  32   2.7624   3.0054   7.1004  -0.3242   1.5309   1.6539   0.00    0.0
2023/11/29 04:58:01.000   12.769382790   77.341536897   674.7561   5  32   2.7625   3.0055   7.1007  -0.3243   1.5309   1.6540   0.00    0.0
2023/11/29 04:58:02.000   12.769353950   77.341320122   675.4756   5  31   2.7811   3.0448   7.3427  -0.5116   1.8040   1.4615   0.00    0.0
2023/11/29 04:58:03.000   12.769306088   77.341103739   682.2912   5  32   2.7626   3.0056   7.1012  -0.3246   1.5310   1.6542   0.00    0.0
2023/11/29 04:58:04.000   12.769283956   77.340881524   682.9862   5  32   2.7627   3.0057   7.1015  -0.3247   1.5310   1.6543   0.00    0.0
2023/11/29 04:58:05.000   12.769250666   77.340652681   684.2402   5  32   2.7627   3.0058   7.1017  -0.3249   1.5310   1.6545   0.00    0.0
2023/11/29 04:58:06.000   12.769222554   77.340426855   681.3333   5  32   2.7628   3.0059   7.1020  -0.3250   1.5311   1.6546   0.00    0.0
2023/11/29 04:58:07.000   12.769183436   77.340199800   683.9600   5  32   2.7628   3.0060   7.1023  -0.3251   1.5311   1.6547   0.00    0.0
2023/11/29 04:58:08.000   12.769155490   77.339975810   684.0035   5  32   2.7629   3.0061   7.1025  -0.3253   1.5311   1.6548   0.00    0.0
2023/11/29 04:58:09.000   12.769114858   77.339727745   687.1016   5  32   2.7630   3.0061   7.1028  -0.3254   1.5312   1.6549   0.00    0.0
2023/11/29 04:58:10.000   12.769088945   77.339524478   682.7597   5  32   2.7630   3.0062   7.1030  -0.3255   1.5312   1.6550   0.00    0.0
2023/11/29 04:58:11.000   12.769069129   77.339273349   677.6805   5  31   2.7817   3.0457   7.3449  -0.5127   1.8047   1.4626   0.00    0.0
2023/11/29 04:58:12.000   12.769043016   77.339053822   677.7584   5  32   2.7632   3.0064   7.1036  -0.3258   1.5312   1.6553   0.00    0.0
2023/11/29 04:58:13.000   12.769010209   77.338829776   677.9134   5  32   2.7632   3.0065   7.1038  -0.3259   1.5313   1.6554   0.00    0.0
2023/11/29 04:58:14.000   12.768985093   77.338606482   678.5586   5  32   2.7633   3.0066   7.1041  -0.3261   1.5313   1.6555   0.00    0.0
2023/11/29 04:58:15.000   12.768956986   77.338392782   678.3155   5  32   2.7633   3.0067   7.1043  -0.3262   1.5313   1.6556   0.00    0.0
2023/11/29 04:58:16.000   12.768927355   77.338174707   677.9466   5  32   2.7634   3.0068   7.1046  -0.3263   1.5313   1.6557   0.00    0.0
2023/11/29 04:58:17.000   12.768895190   77.337962368   678.9774   5  32   2.7635   3.0068   7.1049  -0.3265   1.5314   1.6559   0.00    0.0
2023/11/29 04:58:18.000   12.768851961   77.337772501   683.2355   5  32   2.7635   3.0069   7.1051  -0.3266   1.5314   1.6560   0.00    0.0
2023/11/29 04:58:19.000   12.768812754   77.337548238   678.7448   5  32   2.7636   3.0070   7.1054  -0.3267   1.5314   1.6561   0.00    0.0
2023/11/29 04:58:20.000   12.768772161   77.337345511   678.0334   5  32   2.7637   3.0071   7.1056  -0.3269   1.5314   1.6562   0.00    0.0
2023/11/29 04:58:21.000   12.768715917   77.337137032   679.1289   5  32   2.7637   3.0072   7.1059  -0.3270   1.5315   1.6563   0.00    0.0
2023/11/29 04:58:22.000   12.768658763   77.336944873   679.8396   5  31   2.7824   3.0468   7.3476  -0.5141   1.8054   1.4640   0.00    0.0
2023/11/29 04:58:23.000   12.768606408   77.336738553   677.5013   5  32   2.7638   3.0074   7.1064  -0.3273   1.5315   1.6566   0.00    0.0
2023/11/29 04:58:24.000   12.768535680   77.336562123   679.5667   5  31   2.7825   3.0470   7.3481  -0.5144   1.8055   1.4643   0.00    0.0
2023/11/29 04:58:25.000   12.768454311   77.336373194   685.5636   5  32   2.7640   3.0075   7.1069  -0.3276   1.5315   1.6568   0.00    0.0
2023/11/29 04:58:26.000   12.768378092   77.336175083   681.0918   5  31   2.8836   3.0278   7.4951   0.4239   1.7824   2.1683   0.00    0.0
2023/11/29 04:58:27.000   12.768302835   77.335981126   678.3223   5  30   2.8965   3.0709   7.7615   0.2003   2.0514   2.0379   0.00    0.0
2023/11/29 04:58:28.000   12.768227751   77.335785390   677.9350   5  30   2.8966   3.0710   7.7617   0.1999   2.0514   2.0380   0.00    0.0
2023/11/29 04:58:29.000   12.768158060   77.335599250   678.4879   5  30   2.8967   3.0710   7.7620   0.1995   2.0514   2.0381   0.00    0.0
2023/11/29 04:58:30.000   12.768075542   77.335433946   672.5315   5  30   2.8968   3.0711   7.7622   0.1991   2.0514   2.0382   0.00    0.0
2023/11/29 04:58:31.000   12.767911386   77.335220570   673.0614   5  22   3.7918   3.3353   9.6733   0.7239   1.5187   3.4724   0.00    0.0
2023/11/29 04:58:32.000   12.767928805   77.335022273   682.1834   5  29   2.9979   3.1021   7.8325  -0.5451   1.9374   2.2272   0.00    0.0
2023/11/29 04:58:33.000   12.767875975   77.334847227   686.8019   5  31   2.7831   3.0479   7.3503  -0.5155   1.8061   1.4655   0.00    0.0
2023/11/29 04:58:34.000   12.767807188   77.334657415   689.0616   5  29   3.1051   3.3195   7.8807   1.2387   2.3647   2.0624   0.00    0.0
2023/11/29 04:58:35.000   12.767723689   77.334489168   697.0460   5  30   3.0932   3.2743   7.5901   1.2972   2.1053   2.1977   0.00    0.0
2023/11/29 04:58:36.000   12.767643956   77.334277532   686.6231   5  29   3.1052   3.3197   7.8814   1.2385   2.3645   2.0623   0.00    0.0
2023/11/29 04:58:37.000   12.767506334   77.334075209   675.5245   5  31   2.8703   3.0448   7.4995   0.4459   2.2416   1.8344   0.00    0.0
2023/11/29 04:58:38.000   12.767421968   77.333911206   680.4839   5  32   2.7646   3.0162   7.1299  -0.3510   2.0137   1.2528   0.00    0.0
2023/11/29 04:58:39.000   12.767327856   77.333748092   680.6540   5  32   2.7646   3.0163   7.1301  -0.3511   2.0138   1.2529   0.00    0.0
2023/11/29 04:58:40.000   12.767228356   77.333589357   679.5950   5  32   2.7647   3.0164   7.1303  -0.3513   2.0138   1.2530   0.00    0.0
2023/11/29 04:58:41.000   12.767104461   77.333436249   679.9193   5  32   2.7647   3.0165   7.1305  -0.3514   2.0139   1.2530   0.00    0.0
2023/11/29 04:58:42.000   12.766985777   77.333280580   679.5307   5  32   2.7648   3.0166   7.1307  -0.3516   2.0140   1.2531   0.00    0.0
2023/11/29 04:58:43.000   12.766855662   77.333126840   678.3335   5  32   2.7649   3.0167   7.1309  -0.3517   2.0140   1.2532   0.00    0.0
2023/11/29 04:58:44.000   12.766718298   77.332972943   676.9395   5  32   2.7649   3.0168   7.1311  -0.3518   2.0141   1.2533   0.00    0.0
2023/11/29 04:58:45.000   12.766587699   77.332827123   676.4834   5  32   2.7650   3.0170   7.1312  -0.3520   2.0142   1.2533   0.00    0.0
2023/11/29 04:58:46.000   12.766443194   77.332677809   675.7040   5  32   2.7650   3.0171   7.1314  -0.3521   2.0142   1.2534   0.00    0.0
2023/11/29 04:58:47.000   12.766315472   77.332525602   675.8826   5  32   2.7651   3.0172   7.1316  -0.3523   2.0143   1.2535   0.00    0.0
2023/11/29 04:58:48.000   12.766182466   77.332374088   676.3365   5  32   2.7651   3.0173   7.1318  -0.3524   2.0143   1.2535   0.00    0.0
2023/11/29 04:58:49.000   12.766044506   77.332214734   674.4318   5  32   2.7652   3.0174   7.1320  -0.3525   2.0144   1.2536   0.00    0.0
2023/11/29 04:58:50.000   12.765904180   77.332059592   676.5227   5  30   2.8472   3.1944   7.5873  -0.9132   2.2449   1.0216   0.00    0.0
2023/11/29 04:58:51.000   12.765766160   77.331902857   674.8777   5  30   2.8473   3.1946   7.5874  -0.9133   2.2449   1.0219   0.00    0.0
2023/11/29 04:58:52.000   12.765621043   77.331740062   674.4333   5  31   2.7844   3.0499   7.3548  -0.5178   1.8072   1.4681   0.00    0.0
2023/11/29 04:58:53.000   12.765475311   77.331582452   674.5004   5  31   2.7845   3.0500   7.3550  -0.5180   1.8072   1.4683   0.00    0.0
2023/11/29 04:58:54.000   12.765339775   77.331420537   674.0162   5  31   2.7845   3.0501   7.3553  -0.5181   1.8073   1.4684   0.00    0.0
2023/11/29 04:58:55.000   12.765197626   77.331258932   673.8485   5  31   2.7846   3.0502   7.3555  -0.5182   1.8074   1.4685   0.00    0.0
2023/11/29 04:58:56.000   12.765060790   77.331102661   673.3781   5  31   2.7847   3.0503   7.3558  -0.5183   1.8074   1.4687   0.00    0.0
2023/11/29 04:58:57.000   12.764918459   77.330941584   673.2807   5  31   2.7848   3.0504   7.3560  -0.5185   1.8075   1.4688   0.00    0.0
2023/11/29 04:58:58.000   12.764775495   77.330781300   672.5915   5  32   2.7657   3.0184   7.1337  -0.3538   2.0149   1.2543   0.00    0.0
2023/11/29 04:58:59.000   12.764633020   77.330627983   671.4169   5  32   2.7658   3.0185   7.1338  -0.3540   2.0150   1.2543   0.00    0.0
2023/11/29 04:59:00.000   12.764490665   77.330472181   671.6441   5  32   2.7658   3.0186   7.1340  -0.3541   2.0150   1.2544   0.00    0.0
2023/11/29 04:59:01.000   12.764348193   77.330315109   672.2435   5  32   2.7659   3.0187   7.1342  -0.3542   2.0151   1.2545   0.00    0.0
2023/11/29 04:59:02.000   12.764212611   77.330159203   672.5410   5  32   2.7660   3.0188   7.1344  -0.3544   2.0152   1.2545   0.00    0.0
2023/11/29 04:59:03.000   12.764062110   77.330014330   672.8913   5  32   2.7660   3.0189   7.1346  -0.3545   2.0152   1.2546   0.00    0.0
2023/11/29 04:59:04.000   12.763916803   77.329868687   673.3206   5  32   2.7661   3.0190   7.1348  -0.3547   2.0153   1.2547   0.00    0.0
2023/11/29 04:59:05.000   12.763764557   77.329735348   673.6338   5  32   2.7661   3.0191   7.1349  -0.3548   2.0153   1.2548   0.00    0.0
2023/11/29 04:59:06.000   12.763615934   77.329589380   672.2224   5  32   2.7662   3.0192   7.1351  -0.3550   2.0154   1.2548   0.00    0.0
2023/11/29 04:59:07.000   12.763459138   77.329459189   673.8071   5  32   2.7662   3.0193   7.1353  -0.3551   2.0154   1.2549   0.00    0.0
2023/11/29 04:59:08.000   12.763307412   77.329319433   674.0170   5  32   2.7663   3.0194   7.1355  -0.3552   2.0155   1.2550   0.00    0.0
2023/11/29 04:59:09.000   12.763162744   77.329178358   672.9242   5  32   2.7664   3.0195   7.1357  -0.3554   2.0156   1.2550   0.00    0.0
2023/11/29 04:59:10.000   12.763010644   77.329040901   673.1050   5  32   2.7664   3.0196   7.1359  -0.3555   2.0156   1.2551   0.00    0.0
2023/11/29 04:59:11.000   12.762858487   77.328894660   672.7573   5  32   2.7665   3.0198   7.1360  -0.3557   2.0157   1.2552   0.00    0.0
2023/11/29 04:59:12.000   12.762710954   77.328759802   672.8793   5  32   2.7665   3.0199   7.1362  -0.3558   2.0157   1.2553   0.00    0.0
2023/11/29 04:59:13.000   12.762559724   77.328616148   671.2256   5  32   2.7666   3.0200   7.1364  -0.3560   2.0158   1.2553   0.00    0.0
2023/11/29 04:59:14.000   12.762410716   77.328470660   670.5624   5  32   2.7667   3.0201   7.1366  -0.3561   2.0158   1.2554   0.00    0.0
2023/11/29 04:59:15.000   12.762253529   77.328314353   670.0451   5  32   2.7667   3.0202   7.1368  -0.3562   2.0159   1.2555   0.00    0.0
2023/11/29 04:59:16.000   12.762097006   77.328174106   669.6133   5  32   2.7668   3.0203   7.1369  -0.3564   2.0159   1.2555   0.00    0.0
2023/11/29 04:59:17.000   12.761941771   77.328027859   668.9110   5  32   2.7668   3.0204   7.1371  -0.3565   2.0160   1.2556   0.00    0.0
2023/11/29 04:59:18.000   12.761783477   77.327878446   668.2194   5  32   2.7669   3.0205   7.1373  -0.3567   2.0161   1.2557   0.00    0.0
2023/11/29 04:59:19.000   12.761628307   77.327729000   666.9657   5  32   2.7669   3.0206   7.1375  -0.3568   2.0161   1.2557   0.00    0.0
2023/11/29 04:59:20.000   12.761464969   77.327572244   667.0528   5  32   2.7670   3.0207   7.1377  -0.3570   2.0162   1.2558   0.00    0.0
2023/11/29 04:59:21.000   12.761306116   77.327421001   667.0721   5  32   2.7671   3.0208   7.1378  -0.3571   2.0162   1.2559   0.00    0.0
2023/11/29 04:59:22.000   12.761150653   77.327264630   666.7321   5  32   2.7671   3.0209   7.1380  -0.3572   2.0163   1.2560   0.00    0.0
2023/11/29 04:59:23.000   12.760987112   77.327115935   664.4726   5  32   2.7672   3.0210   7.1382  -0.3574   2.0163   1.2560   0.00    0.0
2023/11/29 04:59:24.000   12.760828341   77.326967136   664.2870   5  33   2.7078   3.0124   6.9013  -0.5085   1.9098   0.7330   0.00    0.0
2023/11/29 04:59:25.000   12.760673958   77.326816276   663.1269   5  33   2.7079   3.0125   6.9015  -0.5087   1.9099   0.7331   0.00    0.0
2023/11/29 04:59:26.000   12.760518139   77.326666701   662.5665   5  33   2.7079   3.0126   6.9017  -0.5088   1.9100   0.7331   0.00    0.0
2023/11/29 04:59:27.000   12.760361705   77.326527614   660.3080   5  33   2.7080   3.0128   6.9019  -0.5089   1.9100   0.7332   0.00    0.0
2023/11/29 04:59:28.000   12.760199777   77.326376561   659.7806   5  33   2.7080   3.0129   6.9021  -0.5090   1.9101   0.7333   0.00    0.0
2023/11/29 04:59:29.000   12.760052772   77.326223601   658.4039   5  34   2.6803   2.9731   6.7013  -0.2650   1.6853   1.0850   0.00    0.0
2023/11/29 04:59:30.000   12.759892671   77.326081560   657.3759   5  34   2.6804   2.9732   6.7015  -0.2651   1.6853   1.0851   0.00    0.0
2023/11/29 04:59:31.000   12.759741891   77.325942516   657.6663   5  34   2.6804   2.9732   6.7017  -0.2652   1.6854   1.0852   0.00    0.0
2023/11/29 04:59:32.000   12.759586260   77.325786570   654.2864   5  34   2.6805   2.9733   6.7019  -0.2654   1.6854   1.0853   0.00    0.0
2023/11/29 04:59:33.000   12.759442138   77.325656412   657.4787   5  34   2.6805   2.9734   6.7021  -0.2655   1.6854   1.0853   0.00    0.0
2023/11/29 04:59:34.000   12.759290061   77.325500080   655.0176   5  34   2.6806   2.9735   6.7023  -0.2656   1.6854   1.0854   0.00    0.0
2023/11/29 04:59:35.000   12.759130194   77.325357168   654.7456   5  34   2.6806   2.9736   6.7025  -0.2658   1.6854   1.0855   0.00    0.0
2023/11/29 04:59:36.000   12.758976161   77.325211503   654.0934   5  34   2.6807   2.9737   6.7027  -0.2659   1.6855   1.0855   0.00    0.0
2023/11/29 04:59:37.000   12.758820535   77.325066789   654.2400   5  33   2.6967   3.0101   6.8975  -0.4551   1.4430   1.2862   0.00    0.0
2023/11/29 04:59:38.000   12.758659780   77.324922427   653.2765   5  33   2.6967   3.0102   6.8978  -0.4552   1.4431   1.2863   0.00    0.0
2023/11/29 04:59:39.000   12.758504470   77.324772023   653.1168   5  33   2.6968   3.0103   6.8981  -0.4553   1.4431   1.2865   0.00    0.0